{"id_lieu": "2A004-C-001", "id_local": "", "nom_lieu": "A Confina", "ad_lieu": "Lieu-dit Stagnacciu (Croisement RT22 - RD31)", "com_lieu": "AJACCIO", "insee": "2A004", "type": "Supermarch\u00e9", "date_maj": "2019-08-28", "ouvert": "true", "source": "539830349", "nbre_pl": "0", "nbre_pmr": "0", "duree": "", "horaires": "24/7", "proprio": "Prive", "lumiere": "true", "comm": "transport : Bus Muvistrada (2)", "name": "A Confina, Lieu-dit Stagnacciu (Croisement RT22 - RD31)", "lat": "41.9523692", "lon": "8.783403"}
{"id_lieu": "01024-C-001", "id_local": "", "nom_lieu": "Mairie d'Attignat", "ad_lieu": "Place De La Fontaine- Anciens Combattants", "com_lieu": "ATTIGNAT", "insee": "01024", "type": "Parking", "date_maj": "2019-08-29", "ouvert": "true", "source": "200071751", "nbre_pl": "5", "nbre_pmr": "", "duree": "", "horaires": "", "proprio": "", "lumiere": "", "comm": "", "name": "Mairie d'Attignat, Place De La Fontaine- Anciens Combattants", "lat": "46.28957222", "lon": "5.158352778"}
{"id_lieu": "01049-C-001", "id_local": "", "nom_lieu": "Aire de covoiturage Montluel", "ad_lieu": "La Boisse", "com_lieu": "LA BOISSE", "insee": "01049", "type": "Aire de covoiturage", "date_maj": "2019-08-29", "ouvert": "true", "source": "240100610", "nbre_pl": "100", "nbre_pmr": "", "duree": "", "horaires": "", "proprio": "", "lumiere": "", "comm": "", "name": "Aire de covoiturage Montluel, La Boisse", "lat": "45.840543", "lon": "5.048432"}
{"id_lieu": "01089-C-001", "id_local": "", "nom_lieu": "Aire de covoiturage Ch\u00e2teau-Gaillard", "ad_lieu": "Ch\u00e2teau-Gaillard", "com_lieu": "CHATEAU GAILLARD", "insee": "01089", "type": "Sortie d'autoroute", "date_maj": "2019-08-29", "ouvert": "true", "source": "240100883", "nbre_pl": "15", "nbre_pmr": "", "duree": "", "horaires": "", "proprio": "", "lumiere": "", "comm": "", "name": "Aire de covoiturage Ch\u00e2teau-Gaillard, Ch\u00e2teau-Gaillard", "lat": "45.977088", "lon": "5.311396"}
{"id_lieu": "01093-C-001", "id_local": "", "nom_lieu": "Parking Bel Air", "ad_lieu": "Route De Neuville - Parking Bel Air", "com_lieu": "CHATILLON SUR CHALARONNE", "insee": "01093", "type": "Parking", "date_maj": "2019-08-29", "ouvert": "true", "source": "200071751", "nbre_pl": "10", "nbre_pmr": "", "duree": "", "horaires": "", "proprio": "", "lumiere": "", "comm": "", "name": "Parking Bel Air, Route De Neuville - Parking Bel Air", "lat": "46.12900556", "lon": "4.964663889"}
{"id_lieu": "01096-C-001", "id_local": "", "nom_lieu": "Parking La Genetiere", "ad_lieu": "Route De Bourg - La Genetiere", "com_lieu": "CHAVEYRIAT", "insee": "01096", "type": "Parking", "date_maj": "2019-08-29", "ouvert": "true", "source": "200071751", "nbre_pl": "5", "nbre_pmr": "", "duree": "", "horaires": "", "proprio": "", "lumiere": "", "comm": "", "name": "Parking La Genetiere, Route De Bourg - La Genetiere", "lat": "46.17810278", "lon": "5.073319444"}
{"id_lieu": "01096-C-002", "id_local": "", "nom_lieu": "Place du Monument", "ad_lieu": "Route De Condeissiat - Place Du Monument", "com_lieu": "CHAVEYRIAT", "insee": "01096", "type": "Parking", "date_maj": "2019-08-29", "ouvert": "true", "source": "200071751", "nbre_pl": "3", "nbre_pmr": "", "duree": "", "horaires": "", "proprio": "", "lumiere": "", "comm": "", "name": "Place du Monument, Route De Condeissiat - Place Du Monument", "lat": "46.19888333", "lon": "5.059761111"}
{"id_lieu": "01115-C-001", "id_local": "", "nom_lieu": "Place du Logis Neuf", "ad_lieu": "Place Du Logis Neuf", "com_lieu": "CONFRANCON", "insee": "01115", "type": "Parking", "date_maj": "2019-08-29", "ouvert": "true", "source": "200071751", "nbre_pl": "3", "nbre_pmr": "", "duree": "", "horaires": "", "proprio": "", "lumiere": "", "comm": "", "name": "Place du Logis Neuf, Place Du Logis Neuf", "lat": "46.25655278", "lon": "5.055497222"}
{"id_lieu": "01151-C-001", "id_local": "", "nom_lieu": "Place de L'Eglise", "ad_lieu": "Route De Pont D'Ain - Monument Aux Morts", "com_lieu": "DRUILLAT", "insee": "01151", "type": "Parking", "date_maj": "2019-08-29", "ouvert": "true", "source": "200071751", "nbre_pl": "1", "nbre_pmr": "", "duree": "", "horaires": "", "proprio": "", "lumiere": "", "comm": "", "name": "Place de L'Eglise, Route De Pont D'Ain - Monument Aux Morts", "lat": "46.05911111", "lon": "5.31775"}
{"id_lieu": "01195-C-001", "id_local": "", "nom_lieu": "Place Sans Souci", "ad_lieu": "Place Sans Souci", "com_lieu": "JASSERON", "insee": "01195", "type": "Parking", "date_maj": "2019-08-29", "ouvert": "true", "source": "200071751", "nbre_pl": "3", "nbre_pmr": "", "duree": "", "horaires": "", "proprio": "", "lumiere": "", "comm": "", "name": "Place Sans Souci, Place Sans Souci", "lat": "46.21393889", "lon": "5.3263"}
{"id_lieu": "01196-C-001", "id_local": "", "nom_lieu": "Parking Chemin de L'Ecole", "ad_lieu": "Chemin De L'\u00e9cole", "com_lieu": "JAYAT", "insee": "01196", "type": "Parking", "date_maj": "2019-08-29", "ouvert": "true", "source": "200071751", "nbre_pl": "3", "nbre_pmr": "", "duree": "", "horaires": "", "proprio": "", "lumiere": "", "comm": "", "name": "Parking Chemin de L'Ecole, Chemin De L'\u00e9cole", "lat": "46.36907222", "lon": "5.119902778"}
{"id_lieu": "01236-C-001", "id_local": "", "nom_lieu": "Place de L'Eglise", "ad_lieu": "Place De L'\u00e9glise", "com_lieu": "MARSONNAS", "insee": "01236", "type": "Parking", "date_maj": "2019-08-29", "ouvert": "true", "source": "200071751", "nbre_pl": "2", "nbre_pmr": "", "duree": "", "horaires": "", "proprio": "", "lumiere": "", "comm": "", "name": "Place de L'Eglise, Place De L'\u00e9glise", "lat": "46.34124722", "lon": "5.071047222"}
{"id_lieu": "01245-C-001", "id_local": "", "nom_lieu": "Place de Bohas", "ad_lieu": "D979 Place De Bohas", "com_lieu": "BOHAS MEYRIAT RIGNAT", "insee": "01245", "type": "Parking", "date_maj": "2019-08-29", "ouvert": "true", "source": "200071751", "nbre_pl": "2", "nbre_pmr": "", "duree": "", "horaires": "", "proprio": "", "lumiere": "", "comm": "", "name": "Place de Bohas, D979 Place De Bohas", "lat": "46.15994722", "lon": "5.388425"}
{"id_lieu": "01248-C-001", "id_local": "", "nom_lieu": "Aire de covoiturage du Mionnay", "ad_lieu": "Mionnay", "com_lieu": "MIONNAY", "insee": "01248", "type": "Sortie d'autoroute", "date_maj": "2019-08-29", "ouvert": "true", "source": "200069193", "nbre_pl": "21", "nbre_pmr": "", "duree": "", "horaires": "", "proprio": "", "lumiere": "", "comm": "", "name": "Aire de covoiturage du Mionnay, Mionnay", "lat": "45.8831017", "lon": "4.899796871"}
{"id_lieu": "01266-C-001", "id_local": "", "nom_lieu": "Place General de gaulle", "ad_lieu": "Place Du G\u00e9n\u00e9ral De Gaulle", "com_lieu": "MONTREVEL EN BRESSE", "insee": "01266", "type": "Parking", "date_maj": "2019-08-29", "ouvert": "true", "source": "200071751", "nbre_pl": "5", "nbre_pmr": "", "duree": "", "horaires": "", "proprio": "", "lumiere": "", "comm": "", "name": "Place General de gaulle, Place Du G\u00e9n\u00e9ral De Gaulle", "lat": "46.33573333", "lon": "5.125961111"}
{"id_lieu": "01290-C-001", "id_local": "", "nom_lieu": "Aire de covoiturage P\u00e9rouges", "ad_lieu": "P\u00e9rouges", "com_lieu": "PEROUGES", "insee": "01290", "type": "Sortie d'autoroute", "date_maj": "2019-08-29", "ouvert": "true", "source": "240100883", "nbre_pl": "12", "nbre_pmr": "", "duree": "", "horaires": "", "proprio": "", "lumiere": "", "comm": "", "name": "Aire de covoiturage P\u00e9rouges, P\u00e9rouges", "lat": "45.860683", "lon": "5.182171"}
{"id_lieu": "01301-C-001", "id_local": "", "nom_lieu": "Parking du Stade", "ad_lieu": "Route Saint Martin Le Ch\u00e9tel \"Stade\"", "com_lieu": "POLLIAT", "insee": "01301", "type": "Parking", "date_maj": "2019-08-29", "ouvert": "true", "source": "200071751", "nbre_pl": "8", "nbre_pmr": "", "duree": "", "horaires": "", "proprio": "", "lumiere": "", "comm": "", "name": "Parking du Stade, Route Saint Martin Le Ch\u00e9tel \"Stade\"", "lat": "46.251132", "lon": "5.126572"}
{"id_lieu": "01301-C-002", "id_local": "", "nom_lieu": "Parking Quinconces", "ad_lieu": "Route De Chamonin - \"Quinconces\"", "com_lieu": "POLLIAT", "insee": "01301", "type": "Parking", "date_maj": "2019-08-29", "ouvert": "true", "source": "200071751", "nbre_pl": "6", "nbre_pmr": "", "duree": "", "horaires": "", "proprio": "", "lumiere": "", "comm": "", "name": "Parking Quinconces, Route De Chamonin - \"Quinconces\"", "lat": "46.250066", "lon": "5.121596"}
{"id_lieu": "01350-C-001", "id_local": "", "nom_lieu": "Terrain de Boules - Chemin des Lyonni\u00e9res", "ad_lieu": "Chemin Des Lyonni\u00e9res - Terrain De Boules", "com_lieu": "ST ETIENNE DU BOIS", "insee": "01350", "type": "Parking", "date_maj": "2019-08-29", "ouvert": "true", "source": "200071751", "nbre_pl": "5", "nbre_pmr": "", "duree": "", "horaires": "", "proprio": "", "lumiere": "", "comm": "", "name": "Terrain de Boules - Chemin des Lyonni\u00e9res, Chemin Des Lyonni\u00e9res - Terrain De Boules", "lat": "46.28322222", "lon": "5.289722222"}
{"id_lieu": "01376-C-001", "id_local": "", "nom_lieu": "Aire de covoiturage Saint-Maurice-De-Beynost", "ad_lieu": "Saint-Maurice-De-Beynost", "com_lieu": "ST MAURICE DE BEYNOST", "insee": "01376", "type": "Sortie d'autoroute", "date_maj": "2019-08-29", "ouvert": "true", "source": "240100800", "nbre_pl": "80", "nbre_pmr": "", "duree": "", "horaires": "", "proprio": "", "lumiere": "", "comm": "", "name": "Aire de covoiturage Saint-Maurice-De-Beynost, Saint-Maurice-De-Beynost", "lat": "45.820935", "lon": "4.989172"}
{"id_lieu": "01405-C-001", "id_local": "", "nom_lieu": "Parking des Sports", "ad_lieu": "D1083 - Parking Des Sports", "com_lieu": "SERVAS", "insee": "01405", "type": "Parking", "date_maj": "2019-08-29", "ouvert": "true", "source": "200071751", "nbre_pl": "3", "nbre_pmr": "", "duree": "", "horaires": "", "proprio": "", "lumiere": "", "comm": "", "name": "Parking des Sports, D1083 - Parking Des Sports", "lat": "46.13119722", "lon": "5.163272222"}
{"id_lieu": "01422-C-001", "id_local": "", "nom_lieu": "Place de La Fontaine", "ad_lieu": "Place De La Fontaine- Anciens Combattants", "com_lieu": "TOSSIAT", "insee": "01422", "type": "Parking", "date_maj": "2019-08-29", "ouvert": "true", "source": "200071751", "nbre_pl": "1", "nbre_pmr": "", "duree": "", "horaires": "", "proprio": "", "lumiere": "", "comm": "", "name": "Place de La Fontaine, Place De La Fontaine- Anciens Combattants", "lat": "46.14157222", "lon": "5.316269444"}
{"id_lieu": "01426-C-001", "id_local": "", "nom_lieu": "Parking du Stade", "ad_lieu": "Stade De Sport", "com_lieu": "VAL REVERMONT", "insee": "01426", "type": "Parking", "date_maj": "2019-08-29", "ouvert": "true", "source": "200071751", "nbre_pl": "5", "nbre_pmr": "", "duree": "", "horaires": "", "proprio": "", "lumiere": "", "comm": "", "name": "Parking du Stade, Stade De Sport", "lat": "46.26710278", "lon": "5.362436111"}
{"id_lieu": "01429-C-001", "id_local": "", "nom_lieu": "Mairie de Vandeins", "ad_lieu": "Rue De La Mairie", "com_lieu": "VANDEINS", "insee": "01429", "type": "Parking", "date_maj": "2019-08-29", "ouvert": "true", "source": "200071751", "nbre_pl": "3", "nbre_pmr": "", "duree": "", "horaires": "", "proprio": "", "lumiere": "", "comm": "", "name": "Mairie de Vandeins, Rue De La Mairie", "lat": "46.21584167", "lon": "5.078811111"}
{"id_lieu": "02157-C-001", "id_local": "", "nom_lieu": "P\u00e9age Laon", "ad_lieu": "Gare De P\u00e9age. Autoroute A26. 02000 Chambry", "com_lieu": "CHAMBRY", "insee": "02157", "type": "Sortie d'autoroute", "date_maj": "2019-08-29", "ouvert": "true", "source": "220200026", "nbre_pl": "", "nbre_pmr": "", "duree": "", "horaires": "", "proprio": "", "lumiere": "", "comm": "", "name": "P\u00e9age Laon, Gare De P\u00e9age. Autoroute A26. 02000 Chambry", "lat": "49.60744757", "lon": "3.663798596"}
{"id_lieu": "02163-C-001", "id_local": "", "nom_lieu": "Super U Charly Sur Marne", "ad_lieu": "Route De Pavant. 02310 Charly-Sur-Marne", "com_lieu": "CHARLY SUR MARNE", "insee": "02163", "type": "Supermarch\u00e9", "date_maj": "2019-08-29", "ouvert": "true", "source": "220200026", "nbre_pl": "", "nbre_pmr": "", "duree": "", "horaires": "", "proprio": "", "lumiere": "", "comm": "", "name": "Super U Charly Sur Marne, Route De Pavant. 02310 Charly-Sur-Marne", "lat": "48.97251912", "lon": "3.282443232"}
{"id_lieu": "02168-C-001", "id_local": "SANEF - 93651", "nom_lieu": "Covoiturage SANEF Ch\u00e2teau-Thierry", "ad_lieu": "A4 Sortie 20 La Planchette 02400 B\u00e9zu-Saint-Germain", "com_lieu": "CHATEAU THIERRY", "insee": "02168", "type": "Sortie d'autoroute", "date_maj": "2021-06-02", "ouvert": "true", "source": "220200026", "nbre_pl": "10", "nbre_pmr": "1", "duree": "", "horaires": "24/7", "proprio": "SANEF", "lumiere": "false", "comm": "", "name": "Covoiturage SANEF Ch\u00e2teau-Thierry, A4 Sortie 20 La Planchette 02400 B\u00e9zu-Saint-Germain", "lat": "49.07858266", "lon": "3.400251563"}
{"id_lieu": "02168-C-002", "id_local": "", "nom_lieu": "Carrefour Chateau Thierry", "ad_lieu": "37 Avenue d'Ess\u00e9mes. 02400 Ch\u00e9teau-Thierry", "com_lieu": "CHATEAU THIERRY", "insee": "02168", "type": "Supermarch\u00e9", "date_maj": "2019-08-29", "ouvert": "true", "source": "220200026", "nbre_pl": "", "nbre_pmr": "", "duree": "", "horaires": "", "proprio": "", "lumiere": "", "comm": "", "name": "Carrefour Chateau Thierry, 37 Avenue d'Ess\u00e9mes. 02400 Ch\u00e9teau-Thierry", "lat": "49.0406979", "lon": "3.387474767"}
{"id_lieu": "02168-C-003", "id_local": "", "nom_lieu": "Leclerc Ch\u00e9teau Thierry", "ad_lieu": "12 Rue de la Plaine. 02400 Ch\u00e9teau-Thierry", "com_lieu": "CHATEAU THIERRY", "insee": "02168", "type": "Supermarch\u00e9", "date_maj": "2019-08-29", "ouvert": "true", "source": "220200026", "nbre_pl": "", "nbre_pmr": "", "duree": "", "horaires": "", "proprio": "", "lumiere": "", "comm": "", "name": "Leclerc Ch\u00e9teau Thierry, 12 Rue de la Plaine. 02400 Ch\u00e9teau-Thierry", "lat": "49.03736798", "lon": "3.389779016"}
{"id_lieu": "02209-C-001", "id_local": "", "nom_lieu": "Mairie de ConD\u00e9 En Brie", "ad_lieu": "1 Rond-Point Du Cahot. 02330 ConD\u00e9-En-Brie", "com_lieu": "CONDE EN BRIE", "insee": "02209", "type": "Aire de covoiturage", "date_maj": "2019-08-29", "ouvert": "true", "source": "220200026", "nbre_pl": "", "nbre_pmr": "", "duree": "", "horaires": "", "proprio": "", "lumiere": "", "comm": "", "name": "Mairie de ConD\u00e9 En Brie, 1 Rond-Point Du Cahot. 02330 ConD\u00e9-En-Brie", "lat": "49.00457585", "lon": "3.555901022"}
{"id_lieu": "02239-C-001", "id_local": "", "nom_lieu": "Parking \u00e9coquartier Cr\u00e9zancy", "ad_lieu": "2 Rue De Paris. 02650 Cr\u00e9zancy", "com_lieu": "CREZANCY", "insee": "02239", "type": "Aire de covoiturage", "date_maj": "2019-08-29", "ouvert": "true", "source": "220200026", "nbre_pl": "", "nbre_pmr": "", "duree": "", "horaires": "", "proprio": "", "lumiere": "", "comm": "", "name": "Parking \u00e9coquartier Cr\u00e9zancy, 2 Rue De Paris. 02650 Cr\u00e9zancy", "lat": "49.04996586", "lon": "3.513723672"}
{"id_lieu": "02305-C-001", "id_local": "", "nom_lieu": "Super U F\u00e9re En Tardenois", "ad_lieu": "F\u00e9re En Tardenois. 02130 F\u00e9re-En-Tardenois", "com_lieu": "FERE EN TARDENOIS", "insee": "02305", "type": "Supermarch\u00e9", "date_maj": "2019-08-29", "ouvert": "true", "source": "220200026", "nbre_pl": "", "nbre_pmr": "", "duree": "", "horaires": "", "proprio": "", "lumiere": "", "comm": "", "name": "Super U F\u00e9re En Tardenois, F\u00e9re En Tardenois. 02130 F\u00e9re-En-Tardenois", "lat": "49.20296656", "lon": "3.516296885"}
{"id_lieu": "02408-C-001", "id_local": "SANEF - 138846", "nom_lieu": "Covoiturage SANEF Laon", "ad_lieu": "A26 Sortie 13", "com_lieu": "LAON", "insee": "02408", "type": "Sortie d'autoroute", "date_maj": "2022-06-02", "ouvert": "true", "source": "632050019", "nbre_pl": "46", "nbre_pmr": "2", "duree": "", "horaires": "24/7", "proprio": "SANEF", "lumiere": "false", "comm": "R\u00e9alis\u00e9 par Sanef, exploit\u00e9 par la CC de la R\u00e9gion de Ch\u00e2teau-Thierry", "name": "Covoiturage SANEF Laon, A26 Sortie 13", "lat": "49.606902", "lon": "3.663693"}
{"id_lieu": "03031-C-001", "id_local": "", "nom_lieu": "Aire de covoiturage de Bizeneuille", "ad_lieu": "Lieudit Fragne", "com_lieu": "BIZENEUILLE", "insee": "03031", "type": "Aire de covoiturage", "date_maj": "2019-08-29", "ouvert": "true", "source": "220300016", "nbre_pl": "", "nbre_pmr": "", "duree": "", "horaires": "", "proprio": "", "lumiere": "", "comm": "", "name": "Aire de covoiturage de Bizeneuille, Lieudit Fragne", "lat": "46.38681335", "lon": "2.69891609"}
{"id_lieu": "03073-C-001", "id_local": "", "nom_lieu": "Aire de Chemilly", "ad_lieu": "Echangeur RCEA (N79)", "com_lieu": "CHEMILLY", "insee": "03073", "type": "Aire de covoiturage", "date_maj": "2019-08-29", "ouvert": "true", "source": "220300016", "nbre_pl": "", "nbre_pmr": "", "duree": "", "horaires": "", "proprio": "", "lumiere": "", "comm": "", "name": "Aire de Chemilly, Echangeur RCEA (N79)", "lat": "46.47358012", "lon": "3.31629589"}
{"id_lieu": "03073-C-002", "id_local": "", "nom_lieu": "Parking de L'Eglise", "ad_lieu": "Place de l'Eglise", "com_lieu": "CHEMILLY", "insee": "03073", "type": "Parking", "date_maj": "2019-08-29", "ouvert": "true", "source": "220300016", "nbre_pl": "4", "nbre_pmr": "", "duree": "", "horaires": "", "proprio": "", "lumiere": "", "comm": "", "name": "Parking de L'Eglise, Place de l'Eglise", "lat": "46.48921715", "lon": "3.31658635"}
{"id_lieu": "03084-C-001", "id_local": "", "nom_lieu": "Parking du Bourg", "ad_lieu": "Place de la LIbert\u00e9 (face garage Renault)", "com_lieu": "COSNE D ALLIER", "insee": "03084", "type": "Parking", "date_maj": "2019-08-29", "ouvert": "true", "source": "220300016", "nbre_pl": "3", "nbre_pmr": "", "duree": "", "horaires": "", "proprio": "", "lumiere": "", "comm": "", "name": "Parking du Bourg, Place de la LIbert\u00e9 (face garage Renault)", "lat": "46.47558623", "lon": "2.83054592"}
{"id_lieu": "03092-C-001", "id_local": "", "nom_lieu": "Parking du Bourg", "ad_lieu": "Le Bourg", "com_lieu": "CRESSANGES", "insee": "03092", "type": "Parking", "date_maj": "2019-08-29", "ouvert": "true", "source": "220300016", "nbre_pl": "4", "nbre_pmr": "", "duree": "", "horaires": "", "proprio": "", "lumiere": "", "comm": "", "name": "Parking du Bourg, Le Bourg", "lat": "46.44417676", "lon": "3.16075256"}
{"id_lieu": "03093-C-001", "id_local": "", "nom_lieu": "Aire de covoiturage du Creuzier", "ad_lieu": "Lieudit les Ancizes", "com_lieu": "CREUZIER LE NEUF", "insee": "03093", "type": "Aire de covoiturage", "date_maj": "2019-08-29", "ouvert": "true", "source": "220300016", "nbre_pl": "", "nbre_pmr": "", "duree": "", "horaires": "", "proprio": "", "lumiere": "", "comm": "", "name": "Aire de covoiturage du Creuzier, Lieudit les Ancizes", "lat": "46.18481218", "lon": "3.45437124"}
{"id_lieu": "03098-C-001", "id_local": "", "nom_lieu": "Parking de La Verne", "ad_lieu": "Parking de la Verne", "com_lieu": "DESERTINES", "insee": "03098", "type": "Parking", "date_maj": "2019-08-29", "ouvert": "true", "source": "220300016", "nbre_pl": "3", "nbre_pmr": "", "duree": "", "horaires": "", "proprio": "", "lumiere": "", "comm": "", "name": "Parking de La Verne, Parking de la Verne", "lat": "46.34439195", "lon": "2.62639058"}
{"id_lieu": "03101-C-001", "id_local": "", "nom_lieu": "Stade", "ad_lieu": "Parking du Stade", "com_lieu": "DOMERAT", "insee": "03101", "type": "Parking", "date_maj": "2019-08-29", "ouvert": "true", "source": "220300016", "nbre_pl": "50", "nbre_pmr": "", "duree": "", "horaires": "", "proprio": "", "lumiere": "", "comm": "", "name": "Stade, Parking du Stade", "lat": "46.35823287", "lon": "2.54675315"}
{"id_lieu": "03102-C-001", "id_local": "", "nom_lieu": "Parking Thomassots", "ad_lieu": "Les Thomassots", "com_lieu": "DOMPIERRE SUR BESBRE", "insee": "03102", "type": "Parking", "date_maj": "2019-08-29", "ouvert": "true", "source": "220300016", "nbre_pl": "6", "nbre_pmr": "", "duree": "", "horaires": "", "proprio": "", "lumiere": "", "comm": "", "name": "Parking Thomassots, Les Thomassots", "lat": "46.51791574", "lon": "3.68849384"}
{"id_lieu": "03118-C-001", "id_local": "", "nom_lieu": "Aire de covoiturage des Chillins", "ad_lieu": "Les Chillins proximit\u00e9 echangeur A71-A719", "com_lieu": "GANNAT", "insee": "03118", "type": "Aire de covoiturage", "date_maj": "2019-08-29", "ouvert": "true", "source": "220300016", "nbre_pl": "20", "nbre_pmr": "", "duree": "", "horaires": "", "proprio": "", "lumiere": "", "comm": "", "name": "Aire de covoiturage des Chillins, Les Chillins proximit\u00e9 echangeur A71-A719", "lat": "46.10311391", "lon": "3.13837825"}
{"id_lieu": "03118-C-002", "id_local": "", "nom_lieu": "Place Saint-James", "ad_lieu": "Place Saint James", "com_lieu": "GANNAT", "insee": "03118", "type": "Parking", "date_maj": "2019-08-29", "ouvert": "true", "source": "220300016", "nbre_pl": "5", "nbre_pmr": "", "duree": "", "horaires": "", "proprio": "", "lumiere": "", "comm": "", "name": "Place Saint-James, Place Saint James", "lat": "46.09634674", "lon": "3.19906571"}
{"id_lieu": "03118-C-003", "id_local": "", "nom_lieu": "Za Les Clos durs", "ad_lieu": "ZA les Clos Durs", "com_lieu": "GANNAT", "insee": "03118", "type": "Parking", "date_maj": "2019-08-29", "ouvert": "true", "source": "220300016", "nbre_pl": "5", "nbre_pmr": "", "duree": "", "horaires": "", "proprio": "", "lumiere": "", "comm": "", "name": "Za Les Clos durs, ZA les Clos Durs", "lat": "46.11107088", "lon": "3.2030103"}
{"id_lieu": "03122-C-001", "id_local": "", "nom_lieu": "Parking de La Mairie", "ad_lieu": "Le Bourg", "com_lieu": "GIPCY", "insee": "03122", "type": "Parking", "date_maj": "2019-08-29", "ouvert": "true", "source": "220300016", "nbre_pl": "5", "nbre_pmr": "", "duree": "", "horaires": "", "proprio": "", "lumiere": "", "comm": "", "name": "Parking de La Mairie, Le Bourg", "lat": "46.50258963", "lon": "3.05378868"}
{"id_lieu": "03132-C-001", "id_local": "", "nom_lieu": "Place du March\u00e9 Couvert", "ad_lieu": "Place du March\u00e9 Couvert", "com_lieu": "JALIGNY SUR BESBRE", "insee": "03132", "type": "Parking", "date_maj": "2019-08-29", "ouvert": "true", "source": "220300016", "nbre_pl": "5", "nbre_pmr": "", "duree": "", "horaires": "", "proprio": "", "lumiere": "", "comm": "", "name": "Place du March\u00e9 Couvert, Place du March\u00e9 Couvert", "lat": "46.37931377", "lon": "3.59436117"}
{"id_lieu": "03138-C-001", "id_local": "", "nom_lieu": "Aire des V\u00e9rit\u00e9s", "ad_lieu": "Bellevue", "com_lieu": "LAPALISSE", "insee": "03138", "type": "Aire de covoiturage", "date_maj": "2019-08-29", "ouvert": "true", "source": "220300016", "nbre_pl": "25", "nbre_pmr": "", "duree": "", "horaires": "", "proprio": "", "lumiere": "", "comm": "", "name": "Aire des V\u00e9rit\u00e9s, Bellevue", "lat": "46.24541141", "lon": "3.61326614"}
{"id_lieu": "03138-C-002", "id_local": "", "nom_lieu": "Place Jean Mac\u00e9", "ad_lieu": "Place Jean Mac\u00e9", "com_lieu": "LAPALISSE", "insee": "03138", "type": "Parking", "date_maj": "2019-08-29", "ouvert": "true", "source": "220300016", "nbre_pl": "5", "nbre_pmr": "", "duree": "", "horaires": "", "proprio": "", "lumiere": "", "comm": "", "name": "Place Jean Mac\u00e9, Place Jean Mac\u00e9", "lat": "46.24866192", "lon": "3.62925909"}
{"id_lieu": "03183-C-001", "id_local": "", "nom_lieu": "Place du Champ de Foire", "ad_lieu": "Place du champ de foire", "com_lieu": "LE MONTET", "insee": "03183", "type": "Parking", "date_maj": "2019-08-29", "ouvert": "true", "source": "220300016", "nbre_pl": "5", "nbre_pmr": "", "duree": "", "horaires": "", "proprio": "", "lumiere": "", "comm": "", "name": "Place du Champ de Foire, Place du champ de foire", "lat": "46.40858365", "lon": "3.0535136"}
{"id_lieu": "03185-C-001", "id_local": "", "nom_lieu": "Parking Saint-Jean", "ad_lieu": "Route de N\u00e9ris", "com_lieu": "MONTLUCON", "insee": "03185", "type": "Parking", "date_maj": "2019-08-29", "ouvert": "true", "source": "220300016", "nbre_pl": "5", "nbre_pmr": "", "duree": "", "horaires": "", "proprio": "", "lumiere": "", "comm": "", "name": "Parking Saint-Jean, Route de N\u00e9ris", "lat": "46.32602626", "lon": "2.6099707"}
{"id_lieu": "03234-C-001", "id_local": "", "nom_lieu": "Parking Salle Polyvalente", "ad_lieu": "Salle Polyvalente. place de la Mairie", "com_lieu": "ST GERAND DE VAUX", "insee": "03234", "type": "Parking", "date_maj": "2019-08-29", "ouvert": "true", "source": "220300016", "nbre_pl": "6", "nbre_pmr": "", "duree": "", "horaires": "", "proprio": "", "lumiere": "", "comm": "", "name": "Parking Salle Polyvalente, Salle Polyvalente. place de la Mairie", "lat": "46.38009454", "lon": "3.40064274"}
{"id_lieu": "03262-C-001", "id_local": "", "nom_lieu": "Centre Aqualudique", "ad_lieu": "Parking Centre Aqualudique", "com_lieu": "ST VICTOR", "insee": "03262", "type": "Parking", "date_maj": "2019-08-29", "ouvert": "true", "source": "220300016", "nbre_pl": "5", "nbre_pmr": "", "duree": "", "horaires": "", "proprio": "", "lumiere": "", "comm": "", "name": "Centre Aqualudique, Parking Centre Aqualudique", "lat": "46.37863358", "lon": "2.58529404"}
{"id_lieu": "03291-C-001", "id_local": "", "nom_lieu": "Parking Lieu-Dit L'Hermitage", "ad_lieu": "Lieu dit l'Hermitage", "com_lieu": "TREZELLES", "insee": "03291", "type": "Parking", "date_maj": "2019-08-29", "ouvert": "true", "source": "220300016", "nbre_pl": "4", "nbre_pmr": "", "duree": "", "horaires": "", "proprio": "", "lumiere": "", "comm": "", "name": "Parking Lieu-Dit L'Hermitage, Lieu dit l'Hermitage", "lat": "46.32831573", "lon": "3.58485918"}
{"id_lieu": "04001-C-001", "id_local": "", "nom_lieu": "Place de La Mairie", "ad_lieu": "5 Place de la Mairie. 04510 Aiglun", "com_lieu": "AIGLUN", "insee": "04001", "type": "Parking", "date_maj": "2019-08-29", "ouvert": "true", "source": "220400014", "nbre_pl": "", "nbre_pmr": "", "duree": "", "horaires": "", "proprio": "", "lumiere": "", "comm": "", "name": "Place de La Mairie, 5 Place de la Mairie. 04510 Aiglun", "lat": "44.050758", "lon": "6.144045"}
{"id_lieu": "04019-C-001", "id_local": "", "nom_lieu": "Parking All\u00e9e des Pins", "ad_lieu": "4 All\u00e9e des Pins. 04400 Barcelonnette", "com_lieu": "BARCELONNETTE", "insee": "04019", "type": "Parking", "date_maj": "2019-08-29", "ouvert": "true", "source": "220400014", "nbre_pl": "", "nbre_pmr": "", "duree": "", "horaires": "", "proprio": "", "lumiere": "", "comm": "", "name": "Parking All\u00e9e des Pins, 4 All\u00e9e des Pins. 04400 Barcelonnette", "lat": "44.386475", "lon": "6.635163"}
{"id_lieu": "04022-C-001", "id_local": "", "nom_lieu": "Parking du Cimeti\u00e9re", "ad_lieu": "Le Village. 04330 Barr\u00e9me", "com_lieu": "BARREME", "insee": "04022", "type": "Parking", "date_maj": "2019-08-29", "ouvert": "true", "source": "220400014", "nbre_pl": "", "nbre_pmr": "", "duree": "", "horaires": "", "proprio": "", "lumiere": "", "comm": "", "name": "Parking du Cimeti\u00e9re, Le Village. 04330 Barr\u00e9me", "lat": "43.955113", "lon": "6.372135"}
{"id_lieu": "04026-C-001", "id_local": "", "nom_lieu": "Parking Parcelle 683 Sur La D951. Ancien Point Relais Information", "ad_lieu": "Les Mouliniers. 05190 Br\u00e9ziers", "com_lieu": "BELLAFFAIRE", "insee": "04026", "type": "Parking", "date_maj": "2019-08-29", "ouvert": "true", "source": "220400014", "nbre_pl": "", "nbre_pmr": "", "duree": "", "horaires": "", "proprio": "", "lumiere": "", "comm": "", "name": "Parking Parcelle 683 Sur La D951. Ancien Point Relais Information, Les Mouliniers. 05190 Br\u00e9ziers", "lat": "44.422655", "lon": "6.184797"}
{"id_lieu": "04031-C-001", "id_local": "", "nom_lieu": "Place St Jean La B\u00e9gude. Bras D'Asse", "ad_lieu": "1 Route de la Fontaine. 04270 Bras-d'Asse", "com_lieu": "BRAS D ASSE", "insee": "04031", "type": "Parking", "date_maj": "2019-08-29", "ouvert": "true", "source": "220400014", "nbre_pl": "", "nbre_pmr": "", "duree": "", "horaires": "", "proprio": "", "lumiere": "", "comm": "", "name": "Place St Jean La B\u00e9gude. Bras D'Asse, 1 Route de la Fontaine. 04270 Bras-d'Asse", "lat": "43.920125", "lon": "6.13412"}
{"id_lieu": "04036-C-001", "id_local": "", "nom_lieu": "Parking de La Mairie", "ad_lieu": "Le Brusquet - Village. 04420 Le Brusquet", "com_lieu": "LE BRUSQUET", "insee": "04036", "type": "Parking", "date_maj": "2019-08-29", "ouvert": "true", "source": "220400014", "nbre_pl": "", "nbre_pmr": "", "duree": "", "horaires": "", "proprio": "", "lumiere": "", "comm": "", "name": "Parking de La Mairie, Le Brusquet - Village. 04420 Le Brusquet", "lat": "44.161969", "lon": "6.313541"}
{"id_lieu": "04067-C-001", "id_local": "", "nom_lieu": "Parking du Passavour", "ad_lieu": "La cabine du passavour. 04200 Curel", "com_lieu": "CUREL", "insee": "04067", "type": "Parking", "date_maj": "2019-08-29", "ouvert": "true", "source": "220400014", "nbre_pl": "", "nbre_pmr": "", "duree": "", "horaires": "", "proprio": "", "lumiere": "", "comm": "", "name": "Parking du Passavour, La cabine du passavour. 04200 Curel", "lat": "44.176217", "lon": "5.672785"}
{"id_lieu": "04070-C-001", "id_local": "", "nom_lieu": "Parking D\u00e9cathlon Route de Marseille", "ad_lieu": "5 Route de Marseille. 04000 Digne-les-Bains", "com_lieu": "DIGNE LES BAINS", "insee": "04070", "type": "Parking", "date_maj": "2019-08-29", "ouvert": "true", "source": "220400014", "nbre_pl": "", "nbre_pmr": "", "duree": "", "horaires": "", "proprio": "", "lumiere": "", "comm": "", "name": "Parking D\u00e9cathlon Route de Marseille, 5 Route de Marseille. 04000 Digne-les-Bains", "lat": "44.069529", "lon": "6.17887"}
{"id_lieu": "04084-C-001", "id_local": "", "nom_lieu": "Parking Entr\u00e9e de Village", "ad_lieu": "D907 \u00e0 droite de l'entr\u00e9e du village en arrivant de M\u00e9zel", "com_lieu": "ESTOUBLON", "insee": "04084", "type": "Parking", "date_maj": "2019-08-29", "ouvert": "true", "source": "220400014", "nbre_pl": "", "nbre_pmr": "", "duree": "", "horaires": "", "proprio": "", "lumiere": "", "comm": "", "name": "Parking Entr\u00e9e de Village, D907 \u00e0 droite de l'entr\u00e9e du village en arrivant de M\u00e9zel", "lat": "43.943831", "lon": "6.17125"}
{"id_lieu": "04086-C-001", "id_local": "", "nom_lieu": "Place de L'\u00e9glise", "ad_lieu": "2 Le Village. 04400 Faucon-de-Barcelonnette", "com_lieu": "FAUCON DE BARCELONNETTE", "insee": "04086", "type": "Parking", "date_maj": "2019-08-29", "ouvert": "true", "source": "220400014", "nbre_pl": "", "nbre_pmr": "", "duree": "", "horaires": "", "proprio": "", "lumiere": "", "comm": "", "name": "Place de L'\u00e9glise, 2 Le Village. 04400 Faucon-de-Barcelonnette", "lat": "44.393746", "lon": "6.678269"}
{"id_lieu": "04104-C-001", "id_local": "", "nom_lieu": "Parking devant Le Camping \"Les Lauzons\"", "ad_lieu": "Les Bouires", "com_lieu": "LIMANS", "insee": "04104", "type": "Parking", "date_maj": "2019-08-29", "ouvert": "true", "source": "220400014", "nbre_pl": "", "nbre_pmr": "", "duree": "", "horaires": "", "proprio": "", "lumiere": "", "comm": "", "name": "Parking devant Le Camping \"Les Lauzons\", Les Bouires", "lat": "43.973047", "lon": "5.733151"}
{"id_lieu": "04110-C-001", "id_local": "", "nom_lieu": "Parking de L'Esplanade Jean Moulin", "ad_lieu": "4586 Avenue du G\u00e9n\u00e9ral de Gaulle. 04510 Mallemoisson", "com_lieu": "MALLEMOISSON", "insee": "04110", "type": "Parking", "date_maj": "2019-08-29", "ouvert": "true", "source": "220400014", "nbre_pl": "", "nbre_pmr": "", "duree": "", "horaires": "", "proprio": "", "lumiere": "", "comm": "", "name": "Parking de L'Esplanade Jean Moulin, 4586 Avenue du G\u00e9n\u00e9ral de Gaulle. 04510 Mallemoisson", "lat": "44.041722", "lon": "6.126217"}
{"id_lieu": "04122-C-001", "id_local": "", "nom_lieu": "Parking Au Carrefour des 4 Chemins", "ad_lieu": "D117 & D17", "com_lieu": "MIRABEAU", "insee": "04122", "type": "Parking", "date_maj": "2019-08-29", "ouvert": "true", "source": "220400014", "nbre_pl": "", "nbre_pmr": "", "duree": "", "horaires": "", "proprio": "", "lumiere": "", "comm": "", "name": "Parking Au Carrefour des 4 Chemins, D117 & D17", "lat": "44.05902", "lon": "6.10239"}
{"id_lieu": "04174-C-001", "id_local": "", "nom_lieu": "Parking du Croisement D460 et Rn202 (Au Passage \u00e0 Niveau)", "ad_lieu": "D460. 04240 Saint-Beno\u00e9t", "com_lieu": "ST BENOIT", "insee": "04174", "type": "Parking", "date_maj": "2019-08-29", "ouvert": "true", "source": "220400014", "nbre_pl": "", "nbre_pmr": "", "duree": "", "horaires": "", "proprio": "", "lumiere": "", "comm": "", "name": "Parking du Croisement D460 et Rn202 (Au Passage \u00e0 Niveau), D460. 04240 Saint-Beno\u00e9t", "lat": "43.960158", "lon": "6.724074"}
{"id_lieu": "04217-C-001", "id_local": "", "nom_lieu": "Parking du Quartier Les Bourres", "ad_lieu": "19 Les Bourres. 04380 Thoard", "com_lieu": "THOARD", "insee": "04217", "type": "Parking", "date_maj": "2019-08-29", "ouvert": "true", "source": "220400014", "nbre_pl": "", "nbre_pmr": "", "duree": "", "horaires": "", "proprio": "", "lumiere": "", "comm": "", "name": "Parking du Quartier Les Bourres, 19 Les Bourres. 04380 Thoard", "lat": "44.136228", "lon": "6.132315"}
{"id_lieu": "04217-C-002", "id_local": "", "nom_lieu": "Place du Village", "ad_lieu": "206 Boulevard Paul Avignon. 04380 Thoard", "com_lieu": "THOARD", "insee": "04217", "type": "Parking", "date_maj": "2019-08-29", "ouvert": "true", "source": "220400014", "nbre_pl": "", "nbre_pmr": "", "duree": "", "horaires": "", "proprio": "", "lumiere": "", "comm": "", "name": "Place du Village, 206 Boulevard Paul Avignon. 04380 Thoard", "lat": "44.149327", "lon": "6.148995"}
{"id_lieu": "04220-C-001", "id_local": "", "nom_lieu": "Parking de La Poste", "ad_lieu": "PLACE FERNAND GILLY. Lotissement le Cl\u00e9t. 04400 Les Thuiles", "com_lieu": "LES THUILES", "insee": "04220", "type": "Parking", "date_maj": "2019-08-29", "ouvert": "true", "source": "220400014", "nbre_pl": "", "nbre_pmr": "", "duree": "", "horaires": "", "proprio": "", "lumiere": "", "comm": "", "name": "Parking de La Poste, PLACE FERNAND GILLY. Lotissement le Cl\u00e9t. 04400 Les Thuiles", "lat": "44.394026", "lon": "6.572451"}
{"id_lieu": "04222-C-001", "id_local": "", "nom_lieu": "Parking du Stade", "ad_lieu": "Avenue Paul Honnorat. 04250 Turriers", "com_lieu": "TURRIERS", "insee": "04222", "type": "Parking", "date_maj": "2019-08-29", "ouvert": "true", "source": "220400014", "nbre_pl": "", "nbre_pmr": "", "duree": "", "horaires": "", "proprio": "", "lumiere": "", "comm": "", "name": "Parking du Stade, Avenue Paul Honnorat. 04250 Turriers", "lat": "44.399939", "lon": "6.170568"}
{"id_lieu": "04226-C-001", "id_local": "", "nom_lieu": "Parking de La Za des Chabrand", "ad_lieu": "15 Traverse du Bachelard. 04400 Barcelonnette", "com_lieu": "UVERNET FOURS", "insee": "04226", "type": "Parking", "date_maj": "2019-08-29", "ouvert": "true", "source": "220400014", "nbre_pl": "", "nbre_pmr": "", "duree": "", "horaires": "", "proprio": "", "lumiere": "", "comm": "", "name": "Parking de La Za des Chabrand, 15 Traverse du Bachelard. 04400 Barcelonnette", "lat": "44.377922", "lon": "6.627212"}
{"id_lieu": "04226-C-002", "id_local": "", "nom_lieu": "Parking Godille Tabac", "ad_lieu": "Pra Loup 1500. 04400 Pra-Loup", "com_lieu": "UVERNET FOURS", "insee": "04226", "type": "Parking", "date_maj": "2019-08-29", "ouvert": "true", "source": "220400014", "nbre_pl": "", "nbre_pmr": "", "duree": "", "horaires": "", "proprio": "", "lumiere": "", "comm": "", "name": "Parking Godille Tabac, Pra Loup 1500. 04400 Pra-Loup", "lat": "44.360672", "lon": "6.614785"}
{"id_lieu": "04230-C-001", "id_local": "", "nom_lieu": "Parking de La Salle Polyvalente", "ad_lieu": "6018 Pl. Frederic Mistral. 04210 Valensole", "com_lieu": "VALENSOLE", "insee": "04230", "type": "Parking", "date_maj": "2019-08-29", "ouvert": "true", "source": "220400014", "nbre_pl": "", "nbre_pmr": "", "duree": "", "horaires": "", "proprio": "", "lumiere": "", "comm": "", "name": "Parking de La Salle Polyvalente, 6018 Pl. Frederic Mistral. 04210 Valensole", "lat": "43.836375", "lon": "5.986746"}
{"id_lieu": "04244-C-001", "id_local": "", "nom_lieu": "Aire de Loisirs Mathieu Perona", "ad_lieu": "33 La Coueste. 04290 Volonne", "com_lieu": "VOLONNE", "insee": "04244", "type": "Parking", "date_maj": "2019-08-29", "ouvert": "true", "source": "220400014", "nbre_pl": "", "nbre_pmr": "", "duree": "", "horaires": "", "proprio": "", "lumiere": "", "comm": "", "name": "Aire de Loisirs Mathieu Perona, 33 La Coueste. 04290 Volonne", "lat": "44.109882", "lon": "6.009842"}
{"id_lieu": "04245-C-001", "id_local": "", "nom_lieu": "Aire de covoiturage de Volx", "ad_lieu": "A51. 04130 Volx", "com_lieu": "VOLX", "insee": "04245", "type": "Aire de covoiturage", "date_maj": "2019-08-29", "ouvert": "true", "source": "220400014", "nbre_pl": "", "nbre_pmr": "", "duree": "", "horaires": "", "proprio": "", "lumiere": "", "comm": "", "name": "Aire de covoiturage de Volx, A51. 04130 Volx", "lat": "43.842979", "lon": "5.848225"}
{"id_lieu": "06069-C-001", "id_local": "", "nom_lieu": "Parc Relais Alambic", "ad_lieu": "D9. 06130 Grasse", "com_lieu": "GRASSE", "insee": "06069", "type": "Parking relais", "date_maj": "2019-08-29", "ouvert": "true", "source": "220600019", "nbre_pl": "", "nbre_pmr": "", "duree": "", "horaires": "", "proprio": "", "lumiere": "", "comm": "", "name": "Parc Relais Alambic, D9. 06130 Grasse", "lat": "43.641102", "lon": "6.936138"}
{"id_lieu": "06079-C-001", "id_local": "", "nom_lieu": "Parc Relais La Canardi\u00e9re", "ad_lieu": "Zone Industrielle De La Canardi\u00e9re. Avenue du Mar\u00e9chal Lyautey. 06210 Mandelieu-la-Napoule", "com_lieu": "MANDELIEU LA NAPOULE", "insee": "06079", "type": "Parking relais", "date_maj": "2019-08-29", "ouvert": "true", "source": "220600019", "nbre_pl": "", "nbre_pmr": "", "duree": "", "horaires": "", "proprio": "", "lumiere": "", "comm": "", "name": "Parc Relais La Canardi\u00e9re, Zone Industrielle De La Canardi\u00e9re. Avenue du Mar\u00e9chal Lyautey. 06210 Mandelieu-la-Napoule", "lat": "43.553332", "lon": "6.946097"}
{"id_lieu": "06084-C-001", "id_local": "", "nom_lieu": "Parc Relais Giratoire P\u00e9n\u00e9trante", "ad_lieu": "600 Route de la Roquette. 06370 Mouans-Sartoux", "com_lieu": "MOUANS SARTOUX", "insee": "06084", "type": "Parking relais", "date_maj": "2019-08-29", "ouvert": "true", "source": "220600019", "nbre_pl": "", "nbre_pmr": "", "duree": "", "horaires": "", "proprio": "", "lumiere": "", "comm": "", "name": "Parc Relais Giratoire P\u00e9n\u00e9trante, 600 Route de la Roquette. 06370 Mouans-Sartoux", "lat": "43.612562", "lon": "6.967739"}
{"id_lieu": "06161-C-001", "id_local": "", "nom_lieu": "Parc Relais Les Plans", "ad_lieu": "117 Avenue des Ferrayonnes. 06270 Villeneuve-Loubet", "com_lieu": "VILLENEUVE LOUBET", "insee": "06161", "type": "Parking relais", "date_maj": "2019-08-29", "ouvert": "true", "source": "220600019", "nbre_pl": "", "nbre_pmr": "", "duree": "", "horaires": "", "proprio": "", "lumiere": "", "comm": "", "name": "Parc Relais Les Plans, 117 Avenue des Ferrayonnes. 06270 Villeneuve-Loubet", "lat": "43.652775", "lon": "7.127547"}
{"id_lieu": "07005-C-001", "id_local": "", "nom_lieu": "Station de service Alba la Romaine", "ad_lieu": "D263A. 07400 Alba-la-Romaine", "com_lieu": "ALBA LA ROMAINE", "insee": "07005", "type": "Parking", "date_maj": "2019-08-29", "ouvert": "true", "source": "220700017", "nbre_pl": "20", "nbre_pmr": "", "duree": "", "horaires": "", "proprio": "", "lumiere": "", "comm": "", "name": "Station de service Alba la Romaine, D263A. 07400 Alba-la-Romaine", "lat": "44.56277", "lon": "4.595806"}
{"id_lieu": "07009-C-001", "id_local": "", "nom_lieu": "Station Essence Torrenson", "ad_lieu": "10 Avenue de Beaucaire. 07340 Andance", "com_lieu": "ANDANCE", "insee": "07009", "type": "Parking", "date_maj": "2019-08-29", "ouvert": "true", "source": "220700017", "nbre_pl": "", "nbre_pmr": "", "duree": "", "horaires": "", "proprio": "", "lumiere": "", "comm": "", "name": "Station Essence Torrenson, 10 Avenue de Beaucaire. 07340 Andance", "lat": "45.23621", "lon": "4.798276"}
{"id_lieu": "07052-C-001", "id_local": "", "nom_lieu": "Aire de covoiturage de Champis", "ad_lieu": "3945 Route de Valence. 07440 Champis", "com_lieu": "CHAMPIS", "insee": "07052", "type": "Aire de covoiturage", "date_maj": "2019-08-29", "ouvert": "true", "source": "220700017", "nbre_pl": "", "nbre_pmr": "", "duree": "", "horaires": "", "proprio": "", "lumiere": "", "comm": "", "name": "Aire de covoiturage de Champis, 3945 Route de Valence. 07440 Champis", "lat": "44.941659", "lon": "4.765861"}
{"id_lieu": "07060-C-001", "id_local": "", "nom_lieu": "Portes du Pays de Crussol", "ad_lieu": "41 Route Royale. 07240 Ch\u00e9teauneuf-de-Vernoux", "com_lieu": "CHATEAUNEUF DE VERNOUX", "insee": "07060", "type": "Parking", "date_maj": "2019-08-29", "ouvert": "true", "source": "220700017", "nbre_pl": "10", "nbre_pmr": "", "duree": "", "horaires": "", "proprio": "", "lumiere": "", "comm": "", "name": "Portes du Pays de Crussol, 41 Route Royale. 07240 Ch\u00e9teauneuf-de-Vernoux", "lat": "44.919568", "lon": "4.642699"}
{"id_lieu": "07064-C-001", "id_local": "", "nom_lieu": "Plaisance", "ad_lieu": "5 Chemin d'Aurives. 07160 Le Cheylard", "com_lieu": "LE CHEYLARD", "insee": "07064", "type": "Parking", "date_maj": "2019-08-29", "ouvert": "true", "source": "220700017", "nbre_pl": "5", "nbre_pmr": "", "duree": "", "horaires": "", "proprio": "", "lumiere": "", "comm": "", "name": "Plaisance, 5 Chemin d'Aurives. 07160 Le Cheylard", "lat": "44.911867", "lon": "4.428552"}
{"id_lieu": "07069-C-001", "id_local": "", "nom_lieu": "Parking Boucherie Valla", "ad_lieu": "Le Village E. 07410 Colombier-le-Vieux", "com_lieu": "COLOMBIER LE VIEUX", "insee": "07069", "type": "Parking", "date_maj": "2019-08-29", "ouvert": "true", "source": "220700017", "nbre_pl": "", "nbre_pmr": "", "duree": "", "horaires": "", "proprio": "", "lumiere": "", "comm": "", "name": "Parking Boucherie Valla, Le Village E. 07410 Colombier-le-Vieux", "lat": "45.066191", "lon": "4.695545"}
{"id_lieu": "07070-C-001", "id_local": "", "nom_lieu": "Salle des f\u00e9tes", "ad_lieu": "126 Avenue du Colonel Rousset. 07130 Cornas", "com_lieu": "CORNAS", "insee": "07070", "type": "Parking", "date_maj": "2019-08-29", "ouvert": "true", "source": "220700017", "nbre_pl": "15", "nbre_pmr": "", "duree": "", "horaires": "", "proprio": "", "lumiere": "", "comm": "", "name": "Salle des f\u00e9tes, 126 Avenue du Colonel Rousset. 07130 Cornas", "lat": "44.960664", "lon": "4.848119"}
{"id_lieu": "07076-C-001", "id_local": "", "nom_lieu": "Les Chrysanth\u00e9mes", "ad_lieu": "2 Pl. des Chrysanthemes. 07350 Cruas", "com_lieu": "CRUAS", "insee": "07076", "type": "Parking", "date_maj": "2019-08-29", "ouvert": "true", "source": "220700017", "nbre_pl": "", "nbre_pmr": "", "duree": "", "horaires": "", "proprio": "", "lumiere": "", "comm": "", "name": "Les Chrysanth\u00e9mes, 2 Pl. des Chrysanthemes. 07350 Cruas", "lat": "44.652089", "lon": "4.759546"}
{"id_lieu": "07078-C-001", "id_local": "", "nom_lieu": "Aire de covoiturage de Dav\u00e9zieux", "ad_lieu": "2147 Route de Lyon. 07430 Saint-Clair", "com_lieu": "DAVEZIEUX", "insee": "07078", "type": "Aire de covoiturage", "date_maj": "2019-08-29", "ouvert": "true", "source": "220700017", "nbre_pl": "20", "nbre_pmr": "", "duree": "", "horaires": "", "proprio": "", "lumiere": "", "comm": "", "name": "Aire de covoiturage de Dav\u00e9zieux, 2147 Route de Lyon. 07430 Saint-Clair", "lat": "45.261776", "lon": "4.706238"}
{"id_lieu": "07089-C-001", "id_local": "", "nom_lieu": "Aire de covoiturage de F\u00e9lines", "ad_lieu": "71 D109. 07340 Felines", "com_lieu": "FELINES", "insee": "07089", "type": "Aire de covoiturage", "date_maj": "2019-08-29", "ouvert": "true", "source": "220700017", "nbre_pl": "10", "nbre_pmr": "", "duree": "", "horaires": "", "proprio": "", "lumiere": "", "comm": "", "name": "Aire de covoiturage de F\u00e9lines, 71 D109. 07340 Felines", "lat": "45.308776", "lon": "4.740932"}
{"id_lieu": "07102-C-001", "id_local": "", "nom_lieu": "Parking Stade Mistral", "ad_lieu": "459 Rue Pierre Curie. 07500 Guilherand-Granges", "com_lieu": "GUILHERAND GRANGES", "insee": "07102", "type": "Parking", "date_maj": "2019-08-29", "ouvert": "true", "source": "220700017", "nbre_pl": "60", "nbre_pmr": "", "duree": "", "horaires": "", "proprio": "", "lumiere": "", "comm": "", "name": "Parking Stade Mistral, 459 Rue Pierre Curie. 07500 Guilherand-Granges", "lat": "44.93741", "lon": "4.884288"}
{"id_lieu": "07107-C-001", "id_local": "", "nom_lieu": "Espace Seroul", "ad_lieu": "D19. 07380 Jaujac", "com_lieu": "JAUJAC", "insee": "07107", "type": "Parking", "date_maj": "2019-08-29", "ouvert": "true", "source": "220700017", "nbre_pl": "5", "nbre_pmr": "", "duree": "", "horaires": "", "proprio": "", "lumiere": "", "comm": "", "name": "Espace Seroul, D19. 07380 Jaujac", "lat": "44.635618", "lon": "4.264253"}
{"id_lieu": "07117-C-001", "id_local": "", "nom_lieu": "Aire de covoiturage Lablach\u00e9re", "ad_lieu": "D104A. 07230 Lablach\u00e9re", "com_lieu": "LABLACHERE", "insee": "07117", "type": "Aire de covoiturage", "date_maj": "2019-08-29", "ouvert": "true", "source": "220700017", "nbre_pl": "25", "nbre_pmr": "", "duree": "", "horaires": "", "proprio": "", "lumiere": "", "comm": "", "name": "Aire de covoiturage Lablach\u00e9re, D104A. 07230 Lablach\u00e9re", "lat": "44.458547", "lon": "4.220053"}
{"id_lieu": "07122-C-001", "id_local": "", "nom_lieu": "Parking Lachapelle sous Aubenas", "ad_lieu": "540 Route de Saint-Sernin. 07200 Lachapelle-Sous-Aubenas", "com_lieu": "LACHAPELLE SOUS AUBENAS", "insee": "07122", "type": "Parking", "date_maj": "2019-08-29", "ouvert": "true", "source": "220700017", "nbre_pl": "20", "nbre_pmr": "", "duree": "", "horaires": "", "proprio": "", "lumiere": "", "comm": "", "name": "Parking Lachapelle sous Aubenas, 540 Route de Saint-Sernin. 07200 Lachapelle-Sous-Aubenas", "lat": "44.570055", "lon": "4.374353"}
{"id_lieu": "07127-C-001", "id_local": "", "nom_lieu": "Le boulodrome", "ad_lieu": "33 Avenue Centrale. 07380 Lalevade-d'Ard\u00e9che", "com_lieu": "LALEVADE D ARDECHE", "insee": "07127", "type": "Parking", "date_maj": "2019-08-29", "ouvert": "true", "source": "220700017", "nbre_pl": "15", "nbre_pmr": "", "duree": "", "horaires": "", "proprio": "", "lumiere": "", "comm": "", "name": "Le boulodrome, 33 Avenue Centrale. 07380 Lalevade-d'Ard\u00e9che", "lat": "44.651711", "lon": "4.322269"}
{"id_lieu": "07129-C-001", "id_local": "", "nom_lieu": "Les D\u00e9vi\u00e9res", "ad_lieu": "2 Rue Raoul Follereau. 07270 Lamastre", "com_lieu": "LAMASTRE", "insee": "07129", "type": "Parking", "date_maj": "2019-08-29", "ouvert": "true", "source": "220700017", "nbre_pl": "20", "nbre_pmr": "", "duree": "", "horaires": "", "proprio": "", "lumiere": "", "comm": "", "name": "Les D\u00e9vi\u00e9res, 2 Rue Raoul Follereau. 07270 Lamastre", "lat": "44.982221", "lon": "4.572838"}
{"id_lieu": "07138-C-001", "id_local": "", "nom_lieu": "Coudoulas", "ad_lieu": "N102. 07170 Lavilledieu", "com_lieu": "LAVILLEDIEU", "insee": "07138", "type": "Parking", "date_maj": "2019-08-29", "ouvert": "true", "source": "220700017", "nbre_pl": "6", "nbre_pmr": "", "duree": "", "horaires": "", "proprio": "", "lumiere": "", "comm": "", "name": "Coudoulas, N102. 07170 Lavilledieu", "lat": "44.567346", "lon": "4.462739"}
{"id_lieu": "07157-C-001", "id_local": "", "nom_lieu": "Aire de covoiturage de Meysse", "ad_lieu": "1 Rue Chevri\u00e9re. 07400 Meysse", "com_lieu": "MEYSSE", "insee": "07157", "type": "Aire de covoiturage", "date_maj": "2019-08-29", "ouvert": "true", "source": "220700017", "nbre_pl": "10", "nbre_pmr": "", "duree": "", "horaires": "", "proprio": "", "lumiere": "", "comm": "", "name": "Aire de covoiturage de Meysse, 1 Rue Chevri\u00e9re. 07400 Meysse", "lat": "44.60963", "lon": "4.724946"}
{"id_lieu": "07165-C-001", "id_local": "", "nom_lieu": "Parking de l'\u00e9glise Saint-Jacques", "ad_lieu": "D578. 07160 Noni\u00e9res", "com_lieu": "NONIERES", "insee": "07165", "type": "Parking", "date_maj": "2019-08-29", "ouvert": "true", "source": "220700017", "nbre_pl": "10", "nbre_pmr": "", "duree": "", "horaires": "", "proprio": "", "lumiere": "", "comm": "", "name": "Parking de l'\u00e9glise Saint-Jacques, D578. 07160 Noni\u00e9res", "lat": "44.932481", "lon": "4.486631"}
{"id_lieu": "07172-C-001", "id_local": "", "nom_lieu": "Aire de covoiturage de Peaugres", "ad_lieu": "39 Route des Maures. 07340 Peaugres", "com_lieu": "PEAUGRES", "insee": "07172", "type": "Aire de covoiturage", "date_maj": "2019-08-29", "ouvert": "true", "source": "220700017", "nbre_pl": "6", "nbre_pmr": "", "duree": "", "horaires": "", "proprio": "", "lumiere": "", "comm": "", "name": "Aire de covoiturage de Peaugres, 39 Route des Maures. 07340 Peaugres", "lat": "45.291566", "lon": "4.734216"}
{"id_lieu": "07181-C-001", "id_local": "", "nom_lieu": "Parking arcades voie ferr\u00e9e", "ad_lieu": "1123 D86. 07250 Le Pouzin", "com_lieu": "LE POUZIN", "insee": "07181", "type": "Parking", "date_maj": "2019-08-29", "ouvert": "true", "source": "220700017", "nbre_pl": "15", "nbre_pmr": "", "duree": "", "horaires": "", "proprio": "", "lumiere": "", "comm": "", "name": "Parking arcades voie ferr\u00e9e, 1123 D86. 07250 Le Pouzin", "lat": "44.756025", "lon": "4.750111"}
{"id_lieu": "07204-C-001", "id_local": "", "nom_lieu": "Parking du rond point D120", "ad_lieu": "D120. 07320 Saint-Agr\u00e9ve", "com_lieu": "ST AGREVE", "insee": "07204", "type": "Parking", "date_maj": "2019-08-29", "ouvert": "true", "source": "220700017", "nbre_pl": "5", "nbre_pmr": "", "duree": "", "horaires": "", "proprio": "", "lumiere": "", "comm": "", "name": "Parking du rond point D120, D120. 07320 Saint-Agr\u00e9ve", "lat": "45.006689", "lon": "4.401874"}
{"id_lieu": "07205-C-001", "id_local": "", "nom_lieu": "Parking la poste", "ad_lieu": "Fontaine B\u00e9nite. 07790 Saint-Alban-d'Ay", "com_lieu": "ST ALBAN D AY", "insee": "07205", "type": "Parking", "date_maj": "2019-08-29", "ouvert": "true", "source": "220700017", "nbre_pl": "", "nbre_pmr": "", "duree": "", "horaires": "", "proprio": "", "lumiere": "", "comm": "", "name": "Parking la poste, Fontaine B\u00e9nite. 07790 Saint-Alban-d'Ay", "lat": "45.188619", "lon": "4.63903"}
{"id_lieu": "07264-C-001", "id_local": "", "nom_lieu": "Parking D86 La Marequi\u00e9re", "ad_lieu": "La Marequi\u00e9re. 07700 Saint-Marcel-d'Ard\u00e9che", "com_lieu": "ST MARCEL D ARDECHE", "insee": "07264", "type": "Parking", "date_maj": "2019-08-29", "ouvert": "true", "source": "220700017", "nbre_pl": "6", "nbre_pmr": "", "duree": "", "horaires": "", "proprio": "", "lumiere": "", "comm": "", "name": "Parking D86 La Marequi\u00e9re, La Marequi\u00e9re. 07700 Saint-Marcel-d'Ard\u00e9che", "lat": "44.325145", "lon": "4.631091"}
{"id_lieu": "07279-C-001", "id_local": "", "nom_lieu": "Parking du rond point D262", "ad_lieu": "La Borne. 07220 Saint-Montan", "com_lieu": "ST MONTAN", "insee": "07279", "type": "Parking", "date_maj": "2019-08-29", "ouvert": "true", "source": "220700017", "nbre_pl": "5", "nbre_pmr": "", "duree": "", "horaires": "", "proprio": "", "lumiere": "", "comm": "", "name": "Parking du rond point D262, La Borne. 07220 Saint-Montan", "lat": "44.43041", "lon": "4.649549"}
{"id_lieu": "07288-C-001", "id_local": "", "nom_lieu": "Parking Bar Chambon Joel", "ad_lieu": "82 D7. 07000 Saint-Priest", "com_lieu": "ST PRIEST", "insee": "07288", "type": "Parking", "date_maj": "2019-08-29", "ouvert": "true", "source": "220700017", "nbre_pl": "6", "nbre_pmr": "", "duree": "", "horaires": "", "proprio": "", "lumiere": "", "comm": "", "name": "Parking Bar Chambon Joel, 82 D7. 07000 Saint-Priest", "lat": "44.720736", "lon": "4.574834"}
{"id_lieu": "07289-C-001", "id_local": "", "nom_lieu": "Aire de covoiturage de Saint-Privat", "ad_lieu": "Saint-Privat Gabelu. 07200 Saint-Privat", "com_lieu": "ST PRIVAT", "insee": "07289", "type": "Aire de covoiturage", "date_maj": "2019-08-29", "ouvert": "true", "source": "220700017", "nbre_pl": "10", "nbre_pmr": "", "duree": "", "horaires": "", "proprio": "", "lumiere": "", "comm": "", "name": "Aire de covoiturage de Saint-Privat, Saint-Privat Gabelu. 07200 Saint-Privat", "lat": "44.62665", "lon": "4.41817"}
{"id_lieu": "07295-C-001", "id_local": "", "nom_lieu": "Parking en face l'Eglise Reform\u00e9e", "ad_lieu": "1 Place du Jardin Public. 07190 Saint-Sauveur-de-Montagut", "com_lieu": "ST SAUVEUR DE MONTAGUT", "insee": "07295", "type": "Parking", "date_maj": "2019-08-29", "ouvert": "true", "source": "220700017", "nbre_pl": "", "nbre_pmr": "", "duree": "", "horaires": "", "proprio": "", "lumiere": "", "comm": "", "name": "Parking en face l'Eglise Reform\u00e9e, 1 Place du Jardin Public. 07190 Saint-Sauveur-de-Montagut", "lat": "44.820196", "lon": "4.57777"}
{"id_lieu": "07296-C-001", "id_local": "", "nom_lieu": "Parking en face de Votre march\u00e9", "ad_lieu": "35 Chemin de l'Ard\u00e9che. 07200 Saint-Sernin", "com_lieu": "ST SERNIN", "insee": "07296", "type": "Parking", "date_maj": "2019-08-29", "ouvert": "true", "source": "220700017", "nbre_pl": "", "nbre_pmr": "", "duree": "", "horaires": "", "proprio": "", "lumiere": "", "comm": "", "name": "Parking en face de Votre march\u00e9, 35 Chemin de l'Ard\u00e9che. 07200 Saint-Sernin", "lat": "44.570891", "lon": "4.393451"}
{"id_lieu": "07302-C-001", "id_local": "", "nom_lieu": "Aire de covoiturage D322", "ad_lieu": "D322. 07210 Saint-Vincent-de-Barr\u00e9s", "com_lieu": "ST VINCENT DE BARRES", "insee": "07302", "type": "Aire de covoiturage", "date_maj": "2019-08-29", "ouvert": "true", "source": "220700017", "nbre_pl": "15", "nbre_pmr": "", "duree": "", "horaires": "", "proprio": "", "lumiere": "", "comm": "", "name": "Aire de covoiturage D322, D322. 07210 Saint-Vincent-de-Barr\u00e9s", "lat": "44.661717", "lon": "4.70616"}
{"id_lieu": "07316-C-001", "id_local": "", "nom_lieu": "Parking Intermarch\u00e9 Soyons", "ad_lieu": "915-891 Chemin du Ruisseau. 07500 Soyons", "com_lieu": "SOYONS", "insee": "07316", "type": "Parking", "date_maj": "2019-08-29", "ouvert": "true", "source": "220700017", "nbre_pl": "", "nbre_pmr": "", "duree": "", "horaires": "", "proprio": "", "lumiere": "", "comm": "", "name": "Parking Intermarch\u00e9 Soyons, 915-891 Chemin du Ruisseau. 07500 Soyons", "lat": "44.917749", "lon": "4.861913"}
{"id_lieu": "07319-C-001", "id_local": "", "nom_lieu": "Aire de covoiturage du Teil", "ad_lieu": "ZAC Entre Pont et Rh\u00e9ne. 07400 Le Teil", "com_lieu": "LE TEIL", "insee": "07319", "type": "Aire de covoiturage", "date_maj": "2019-08-29", "ouvert": "true", "source": "220700017", "nbre_pl": "25", "nbre_pmr": "2", "duree": "", "horaires": "", "proprio": "", "lumiere": "", "comm": "", "name": "Aire de covoiturage du Teil, ZAC Entre Pont et Rh\u00e9ne. 07400 Le Teil", "lat": "44.554489", "lon": "4.68897"}
{"id_lieu": "07337-C-001", "id_local": "", "nom_lieu": "Parking rond point D370A", "ad_lieu": "55 Route de Davezieux. 07430 Vernosc-l\u00e9s-Annonay", "com_lieu": "VERNOSC LES ANNONAY", "insee": "07337", "type": "Parking", "date_maj": "2019-08-29", "ouvert": "true", "source": "220700017", "nbre_pl": "", "nbre_pmr": "", "duree": "", "horaires": "", "proprio": "", "lumiere": "", "comm": "", "name": "Parking rond point D370A, 55 Route de Davezieux. 07430 Vernosc-l\u00e9s-Annonay", "lat": "45.234351", "lon": "4.715622"}
{"id_lieu": "07338-C-001", "id_local": "", "nom_lieu": "Parking D232", "ad_lieu": "D14. 07240 Vernoux-en-Vivarais", "com_lieu": "VERNOUX EN VIVARAIS", "insee": "07338", "type": "Parking", "date_maj": "2019-08-29", "ouvert": "true", "source": "220700017", "nbre_pl": "10", "nbre_pmr": "", "duree": "", "horaires": "", "proprio": "", "lumiere": "", "comm": "", "name": "Parking D232, D14. 07240 Vernoux-en-Vivarais", "lat": "44.908164", "lon": "4.679828"}
{"id_lieu": "07338-C-002", "id_local": "", "nom_lieu": "Parking Camping Municipal Le Bois de Prat", "ad_lieu": "410 All\u00e9e de Prat. 07240 Vernoux-en-Vivarais", "com_lieu": "VERNOUX EN VIVARAIS", "insee": "07338", "type": "Parking", "date_maj": "2019-08-29", "ouvert": "true", "source": "220700017", "nbre_pl": "", "nbre_pmr": "", "duree": "", "horaires": "", "proprio": "", "lumiere": "", "comm": "", "name": "Parking Camping Municipal Le Bois de Prat, 410 All\u00e9e de Prat. 07240 Vernoux-en-Vivarais", "lat": "44.902848", "lon": "4.64981"}
{"id_lieu": "07342-C-001", "id_local": "", "nom_lieu": "Parking La For\u00e9t des Contes en Vocance", "ad_lieu": "Chemin des Pr\u00e9s Peloux. 07690 Villevocance", "com_lieu": "VILLEVOCANCE", "insee": "07342", "type": "Parking", "date_maj": "2019-08-29", "ouvert": "true", "source": "220700017", "nbre_pl": "15", "nbre_pmr": "", "duree": "", "horaires": "", "proprio": "", "lumiere": "", "comm": "", "name": "Parking La For\u00e9t des Contes en Vocance, Chemin des Pr\u00e9s Peloux. 07690 Villevocance", "lat": "45.229671", "lon": "4.59487"}
{"id_lieu": "07346-C-001", "id_local": "", "nom_lieu": "Aire de covoiturage Les quatre chemins", "ad_lieu": "D86. 07220 Viviers", "com_lieu": "VIVIERS", "insee": "07346", "type": "Aire de covoiturage", "date_maj": "2019-08-29", "ouvert": "true", "source": "220700017", "nbre_pl": "10", "nbre_pmr": "", "duree": "", "horaires": "", "proprio": "", "lumiere": "", "comm": "", "name": "Aire de covoiturage Les quatre chemins, D86. 07220 Viviers", "lat": "44.492627", "lon": "4.678984"}
{"id_lieu": "07349-C-001", "id_local": "", "nom_lieu": "Parking Salle des f\u00e9tes", "ad_lieu": "1005-2 Rue Ren\u00e9 Cassin. 07800 La Voulte-sur-Rh\u00e9ne", "com_lieu": "LA VOULTE SUR RHONE", "insee": "07349", "type": "Parking", "date_maj": "2019-08-29", "ouvert": "true", "source": "220700017", "nbre_pl": "19", "nbre_pmr": "", "duree": "", "horaires": "", "proprio": "", "lumiere": "", "comm": "", "name": "Parking Salle des f\u00e9tes, 1005-2 Rue Ren\u00e9 Cassin. 07800 La Voulte-sur-Rh\u00e9ne", "lat": "44.802728", "lon": "4.785377"}
{"id_lieu": "08001-C-001", "id_local": "", "nom_lieu": "Parking covoiturage Acy Romance", "ad_lieu": "", "com_lieu": "ACY ROMANCE", "insee": "08001", "type": "Aire de covoiturage", "date_maj": "2019-08-29", "ouvert": "true", "source": "220800049", "nbre_pl": "38", "nbre_pmr": "", "duree": "", "horaires": "", "proprio": "", "lumiere": "", "comm": "", "name": "Parking covoiturage Acy Romance, ", "lat": "49.49697905", "lon": "4.354769693"}
{"id_lieu": "08111-C-001", "id_local": "", "nom_lieu": "Parking covoiturage du Ch\u00e9telet", "ad_lieu": "", "com_lieu": "LE CHATELET SUR RETOURNE", "insee": "08111", "type": "Aire de covoiturage", "date_maj": "2019-08-29", "ouvert": "true", "source": "220800049", "nbre_pl": "33", "nbre_pmr": "", "duree": "", "horaires": "", "proprio": "", "lumiere": "", "comm": "", "name": "Parking covoiturage du Ch\u00e9telet, ", "lat": "49.41791054", "lon": "4.267726679"}
{"id_lieu": "08341-C-001", "id_local": "", "nom_lieu": "Parking covoiturage de Poix-Terron", "ad_lieu": "", "com_lieu": "POIX TERRON", "insee": "08341", "type": "Aire de covoiturage", "date_maj": "2019-08-29", "ouvert": "true", "source": "220800049", "nbre_pl": "40", "nbre_pmr": "", "duree": "", "horaires": "", "proprio": "", "lumiere": "", "comm": "", "name": "Parking covoiturage de Poix-Terron, ", "lat": "49.64044197", "lon": "4.628759733"}
{"id_lieu": "08402-C-001", "id_local": "", "nom_lieu": "Parking covoiturage de Woinic", "ad_lieu": "", "com_lieu": "SAULCES MONCLIN", "insee": "08402", "type": "Aire de covoiturage", "date_maj": "2019-08-29", "ouvert": "true", "source": "220800049", "nbre_pl": "16", "nbre_pmr": "", "duree": "", "horaires": "", "proprio": "", "lumiere": "", "comm": "", "name": "Parking covoiturage de Woinic, ", "lat": "49.5943415", "lon": "4.503022146"}
{"id_lieu": "08455-C-001", "id_local": "", "nom_lieu": "Parking covoiturage de Mazagran", "ad_lieu": "", "com_lieu": "TOURCELLES CHAUMONT", "insee": "08455", "type": "Aire de covoiturage", "date_maj": "2019-08-29", "ouvert": "true", "source": "220800049", "nbre_pl": "27", "nbre_pmr": "", "duree": "", "horaires": "", "proprio": "", "lumiere": "", "comm": "", "name": "Parking covoiturage de Mazagran, ", "lat": "49.39197194", "lon": "4.584480491"}
{"id_lieu": "09110-C-001", "id_local": "", "nom_lieu": "Relais Vert Angle D33 D3", "ad_lieu": "angle D33 D3", "com_lieu": "ENCOURTIECH", "insee": "09110", "type": "Parking", "date_maj": "2019-08-29", "ouvert": "true", "source": "220900013", "nbre_pl": "", "nbre_pmr": "", "duree": "", "horaires": "", "proprio": "", "lumiere": "", "comm": "", "name": "Relais Vert Angle D33 D3, angle D33 D3", "lat": "42.95658", "lon": "1.177063"}
{"id_lieu": "09209-C-001", "id_local": "", "nom_lieu": "Aire de covoiturage de Montjoie", "ad_lieu": "D627", "com_lieu": "MONTJOIE EN COUSERANS", "insee": "09209", "type": "Aire de covoiturage", "date_maj": "2019-08-29", "ouvert": "true", "source": "220900013", "nbre_pl": "", "nbre_pmr": "", "duree": "", "horaires": "", "proprio": "", "lumiere": "", "comm": "", "name": "Aire de covoiturage de Montjoie, D627", "lat": "42.992903", "lon": "1.159709"}
{"id_lieu": "09235-C-001", "id_local": "", "nom_lieu": "Parking Rue Nationale Rond Point D117E", "ad_lieu": "D117E", "com_lieu": "PRAT BONREPAUX", "insee": "09235", "type": "Parking", "date_maj": "2019-08-29", "ouvert": "true", "source": "220900013", "nbre_pl": "", "nbre_pmr": "", "duree": "", "horaires": "", "proprio": "", "lumiere": "", "comm": "", "name": "Parking Rue Nationale Rond Point D117E, D117E", "lat": "43.032509", "lon": "1.028528"}
{"id_lieu": "09282-C-001", "id_local": "", "nom_lieu": "Parking Le Crieu", "ad_lieu": "D820B4B", "com_lieu": "SAVERDUN", "insee": "09282", "type": "Parking", "date_maj": "2019-08-29", "ouvert": "true", "source": "220900013", "nbre_pl": "", "nbre_pmr": "", "duree": "", "horaires": "", "proprio": "", "lumiere": "", "comm": "", "name": "Parking Le Crieu, D820B4B", "lat": "43.224094", "lon": "1.605379"}
{"id_lieu": "09301-C-001", "id_local": "", "nom_lieu": "Aire de covoiturage de Kercabanac", "ad_lieu": "D3", "com_lieu": "SOULAN", "insee": "09301", "type": "Aire de covoiturage", "date_maj": "2019-08-29", "ouvert": "true", "source": "220900013", "nbre_pl": "", "nbre_pmr": "", "duree": "", "horaires": "", "proprio": "", "lumiere": "", "comm": "", "name": "Aire de covoiturage de Kercabanac, D3", "lat": "42.909095", "lon": "1.214777"}
{"id_lieu": "09312-C-001", "id_local": "", "nom_lieu": "Parking Rond Point Intersection 29 D119", "ad_lieu": "D29", "com_lieu": "LA TOUR DU CRIEU", "insee": "09312", "type": "Parking", "date_maj": "2019-08-29", "ouvert": "true", "source": "220900013", "nbre_pl": "", "nbre_pmr": "", "duree": "", "horaires": "", "proprio": "", "lumiere": "", "comm": "", "name": "Parking Rond Point Intersection 29 D119, D29", "lat": "43.098005", "lon": "1.653904"}
{"id_lieu": "10003-C-001", "id_local": "", "nom_lieu": "Parking covoiturage D0031", "ad_lieu": "D0031", "com_lieu": "AIX VILLEMAUR PALIS", "insee": "10003", "type": "Parking", "date_maj": "2019-08-29", "ouvert": "true", "source": "221000052", "nbre_pl": "", "nbre_pmr": "", "duree": "", "horaires": "", "proprio": "", "lumiere": "", "comm": "", "name": "Parking covoiturage D0031, D0031", "lat": "48.222096", "lon": "3.730838"}
{"id_lieu": "10018-C-001", "id_local": "", "nom_lieu": "Parking covoiturage D0374", "ad_lieu": "D0374", "com_lieu": "AUXON", "insee": "10018", "type": "Parking", "date_maj": "2019-08-29", "ouvert": "true", "source": "221000052", "nbre_pl": "", "nbre_pmr": "", "duree": "", "horaires": "", "proprio": "", "lumiere": "", "comm": "", "name": "Parking covoiturage D0374, D0374", "lat": "48.1031225", "lon": "3.9183815"}
{"id_lieu": "10033-C-001", "id_local": "", "nom_lieu": "Parking D0004B", "ad_lieu": "D0004B", "com_lieu": "BAR SUR AUBE", "insee": "10033", "type": "Parking", "date_maj": "2019-08-29", "ouvert": "true", "source": "221000052", "nbre_pl": "", "nbre_pmr": "", "duree": "", "horaires": "", "proprio": "", "lumiere": "", "comm": "", "name": "Parking D0004B, D0004B", "lat": "48.2299391", "lon": "4.7075607"}
{"id_lieu": "10033-C-002", "id_local": "", "nom_lieu": "Parking D0013", "ad_lieu": "D0013", "com_lieu": "BAR SUR AUBE", "insee": "10033", "type": "Parking", "date_maj": "2019-08-29", "ouvert": "true", "source": "221000052", "nbre_pl": "", "nbre_pmr": "", "duree": "", "horaires": "", "proprio": "", "lumiere": "", "comm": "", "name": "Parking D0013, D0013", "lat": "48.2304895", "lon": "4.715208"}
{"id_lieu": "10051-C-001", "id_local": "", "nom_lieu": "Parking covoiturage D0072A", "ad_lieu": "D0072A", "com_lieu": "BOUILLY", "insee": "10051", "type": "Parking", "date_maj": "2019-08-29", "ouvert": "true", "source": "221000052", "nbre_pl": "", "nbre_pmr": "", "duree": "", "horaires": "", "proprio": "", "lumiere": "", "comm": "", "name": "Parking covoiturage D0072A, D0072A", "lat": "48.19473", "lon": "3.99851"}
{"id_lieu": "10076-C-001", "id_local": "", "nom_lieu": "Parking D0012", "ad_lieu": "D0012", "com_lieu": "CHAMPIGNOL LEZ MONDEVILLE", "insee": "10076", "type": "Parking", "date_maj": "2019-08-29", "ouvert": "true", "source": "221000052", "nbre_pl": "", "nbre_pmr": "", "duree": "", "horaires": "", "proprio": "", "lumiere": "", "comm": "", "name": "Parking D0012, D0012", "lat": "48.136313", "lon": "4.669801"}
{"id_lieu": "10080-C-001", "id_local": "", "nom_lieu": "Parking covoiturage D0444", "ad_lieu": "D0444", "com_lieu": "CHAOURCE", "insee": "10080", "type": "Parking", "date_maj": "2019-08-29", "ouvert": "true", "source": "221000052", "nbre_pl": "", "nbre_pmr": "", "duree": "", "horaires": "", "proprio": "", "lumiere": "", "comm": "", "name": "Parking covoiturage D0444, D0444", "lat": "48.059664", "lon": "4.142812"}
{"id_lieu": "10110-C-001", "id_local": "", "nom_lieu": "Parking D0619", "ad_lieu": "D0619", "com_lieu": "COURTERANGES", "insee": "10110", "type": "Parking", "date_maj": "2019-08-29", "ouvert": "true", "source": "221000052", "nbre_pl": "", "nbre_pmr": "", "duree": "", "horaires": "", "proprio": "", "lumiere": "", "comm": "", "name": "Parking D0619, D0619", "lat": "48.2614815", "lon": "4.24105"}
{"id_lieu": "10123-C-001", "id_local": "", "nom_lieu": "Parking D0011", "ad_lieu": "D0011", "com_lieu": "DIENVILLE", "insee": "10123", "type": "Parking", "date_maj": "2019-08-29", "ouvert": "true", "source": "221000052", "nbre_pl": "", "nbre_pmr": "", "duree": "", "horaires": "", "proprio": "", "lumiere": "", "comm": "", "name": "Parking D0011, D0011", "lat": "48.349037", "lon": "4.5322561"}
{"id_lieu": "10142-C-001", "id_local": "", "nom_lieu": "Parking covoiturage D0023", "ad_lieu": "D0023", "com_lieu": "ESTISSAC", "insee": "10142", "type": "Parking", "date_maj": "2019-08-29", "ouvert": "true", "source": "221000052", "nbre_pl": "", "nbre_pmr": "", "duree": "", "horaires": "", "proprio": "", "lumiere": "", "comm": "", "name": "Parking covoiturage D0023, D0023", "lat": "48.273648", "lon": "3.800577"}
{"id_lieu": "10169-C-001", "id_local": "", "nom_lieu": "Parking D0439", "ad_lieu": "D0439", "com_lieu": "GUMERY", "insee": "10169", "type": "Parking", "date_maj": "2019-08-29", "ouvert": "true", "source": "221000052", "nbre_pl": "", "nbre_pmr": "", "duree": "", "horaires": "", "proprio": "", "lumiere": "", "comm": "", "name": "Parking D0439, D0439", "lat": "48.452408", "lon": "3.432926"}
{"id_lieu": "10178-C-001", "id_local": "", "nom_lieu": "Parking D0018", "ad_lieu": "D0018", "com_lieu": "JESSAINS", "insee": "10178", "type": "Parking", "date_maj": "2019-08-29", "ouvert": "true", "source": "221000052", "nbre_pl": "", "nbre_pmr": "", "duree": "", "horaires": "", "proprio": "", "lumiere": "", "comm": "", "name": "Parking D0018, D0018", "lat": "48.2968746", "lon": "4.5776543"}
{"id_lieu": "10203-C-001", "id_local": "", "nom_lieu": "Parking D0012B", "ad_lieu": "D0012B", "com_lieu": "LONGCHAMP SUR AUJON", "insee": "10203", "type": "Parking", "date_maj": "2019-08-29", "ouvert": "true", "source": "221000052", "nbre_pl": "", "nbre_pmr": "", "duree": "", "horaires": "", "proprio": "", "lumiere": "", "comm": "", "name": "Parking D0012B, D0012B", "lat": "48.15078", "lon": "4.832616"}
{"id_lieu": "10216-C-001", "id_local": "", "nom_lieu": "Parking D0009", "ad_lieu": "D0009", "com_lieu": "MAILLY LE CAMP", "insee": "10216", "type": "Parking", "date_maj": "2019-08-29", "ouvert": "true", "source": "221000052", "nbre_pl": "", "nbre_pmr": "", "duree": "", "horaires": "", "proprio": "", "lumiere": "", "comm": "", "name": "Parking D0009, D0009", "lat": "48.664207", "lon": "4.215609"}
{"id_lieu": "10260-C-001", "id_local": "", "nom_lieu": "Parking D0085", "ad_lieu": "D0085", "com_lieu": "MOUSSEY", "insee": "10260", "type": "Parking", "date_maj": "2019-08-29", "ouvert": "true", "source": "221000052", "nbre_pl": "", "nbre_pmr": "", "duree": "", "horaires": "", "proprio": "", "lumiere": "", "comm": "", "name": "Parking D0085, D0085", "lat": "48.2121685", "lon": "4.097443"}
{"id_lieu": "10265-C-001", "id_local": "", "nom_lieu": "Parking D0060B", "ad_lieu": "D0060B", "com_lieu": "LES NOES PRES TROYES", "insee": "10265", "type": "Parking", "date_maj": "2019-08-29", "ouvert": "true", "source": "221000052", "nbre_pl": "", "nbre_pmr": "", "duree": "", "horaires": "", "proprio": "", "lumiere": "", "comm": "", "name": "Parking D0060B, D0060B", "lat": "48.3029485", "lon": "4.0419535"}
{"id_lieu": "10268-C-001", "id_local": "", "nom_lieu": "Parking D0619", "ad_lieu": "D0619", "com_lieu": "NOGENT SUR SEINE", "insee": "10268", "type": "Parking", "date_maj": "2019-08-29", "ouvert": "true", "source": "221000052", "nbre_pl": "", "nbre_pmr": "", "duree": "", "horaires": "", "proprio": "", "lumiere": "", "comm": "", "name": "Parking D0619, D0619", "lat": "48.4882415", "lon": "3.4781755"}
{"id_lieu": "10268-C-002", "id_local": "", "nom_lieu": "Parking D0919", "ad_lieu": "D0919", "com_lieu": "NOGENT SUR SEINE", "insee": "10268", "type": "Parking", "date_maj": "2019-08-29", "ouvert": "true", "source": "221000052", "nbre_pl": "", "nbre_pmr": "", "duree": "", "horaires": "", "proprio": "", "lumiere": "", "comm": "", "name": "Parking D0919, D0919", "lat": "48.4928405", "lon": "3.5130855"}
{"id_lieu": "10288-C-001", "id_local": "", "nom_lieu": "Parking D0671", "ad_lieu": "D0671", "com_lieu": "PLAINES ST LANGE", "insee": "10288", "type": "Parking", "date_maj": "2019-08-29", "ouvert": "true", "source": "221000052", "nbre_pl": "", "nbre_pmr": "", "duree": "", "horaires": "", "proprio": "", "lumiere": "", "comm": "", "name": "Parking D0671, D0671", "lat": "47.9937755", "lon": "4.483251"}
{"id_lieu": "10289-C-001", "id_local": "", "nom_lieu": "Parking D0056", "ad_lieu": "D0056", "com_lieu": "PLANCY L ABBAYE", "insee": "10289", "type": "Parking", "date_maj": "2019-08-29", "ouvert": "true", "source": "221000052", "nbre_pl": "", "nbre_pmr": "", "duree": "", "horaires": "", "proprio": "", "lumiere": "", "comm": "", "name": "Parking D0056, D0056", "lat": "48.5717405", "lon": "3.9600325"}
{"id_lieu": "10300-C-001", "id_local": "", "nom_lieu": "Parking D0148", "ad_lieu": "D0148", "com_lieu": "POUGY", "insee": "10300", "type": "Parking", "date_maj": "2019-08-29", "ouvert": "true", "source": "221000052", "nbre_pl": "", "nbre_pmr": "", "duree": "", "horaires": "", "proprio": "", "lumiere": "", "comm": "", "name": "Parking D0148, D0148", "lat": "48.443182", "lon": "4.3579075"}
{"id_lieu": "10321-C-001", "id_local": "", "nom_lieu": "Parking D0053", "ad_lieu": "D0053", "com_lieu": "LA RIVIERE DE CORPS", "insee": "10321", "type": "Parking", "date_maj": "2019-08-29", "ouvert": "true", "source": "221000052", "nbre_pl": "", "nbre_pmr": "", "duree": "", "horaires": "", "proprio": "", "lumiere": "", "comm": "", "name": "Parking D0053, D0053", "lat": "48.2876515", "lon": "4.0300799"}
{"id_lieu": "10333-C-001", "id_local": "", "nom_lieu": "Parking D0041", "ad_lieu": "D0041", "com_lieu": "ST ANDRE LES VERGERS", "insee": "10333", "type": "Parking", "date_maj": "2019-08-29", "ouvert": "true", "source": "221000052", "nbre_pl": "", "nbre_pmr": "", "duree": "", "horaires": "", "proprio": "", "lumiere": "", "comm": "", "name": "Parking D0041, D0041", "lat": "48.285055", "lon": "4.051245"}
{"id_lieu": "10367-C-001", "id_local": "", "nom_lieu": "Parking D0176", "ad_lieu": "D0176", "com_lieu": "LA SAULSOTTE", "insee": "10367", "type": "Parking", "date_maj": "2019-08-29", "ouvert": "true", "source": "221000052", "nbre_pl": "", "nbre_pmr": "", "duree": "", "horaires": "", "proprio": "", "lumiere": "", "comm": "", "name": "Parking D0176, D0176", "lat": "48.5427795", "lon": "3.500565"}
{"id_lieu": "10389-C-001", "id_local": "", "nom_lieu": "Parking D0046", "ad_lieu": "D0046", "com_lieu": "UNIENVILLE", "insee": "10389", "type": "Parking", "date_maj": "2019-08-29", "ouvert": "true", "source": "221000052", "nbre_pl": "", "nbre_pmr": "", "duree": "", "horaires": "", "proprio": "", "lumiere": "", "comm": "", "name": "Parking D0046, D0046", "lat": "48.3261635", "lon": "4.55046"}
{"id_lieu": "11058-C-001", "id_local": "", "nom_lieu": "Aire de covoiturage de Cailhau", "ad_lieu": "D18", "com_lieu": "CAILHAU", "insee": "11058", "type": "Aire de covoiturage", "date_maj": "2019-08-29", "ouvert": "true", "source": "221100019", "nbre_pl": "", "nbre_pmr": "", "duree": "", "horaires": "", "proprio": "", "lumiere": "", "comm": "", "name": "Aire de covoiturage de Cailhau, D18", "lat": "43.13378", "lon": "2.11684"}
{"id_lieu": "11069-C-001", "id_local": "", "nom_lieu": "Aire de covoiturage du Rond-Point George Pompidou", "ad_lieu": "D6113", "com_lieu": "CARCASSONNE", "insee": "11069", "type": "Aire de covoiturage", "date_maj": "2019-08-29", "ouvert": "true", "source": "221100019", "nbre_pl": "", "nbre_pmr": "", "duree": "", "horaires": "", "proprio": "", "lumiere": "", "comm": "", "name": "Aire de covoiturage du Rond-Point George Pompidou, D6113", "lat": "43.22703", "lon": "2.33082"}
{"id_lieu": "11079-C-001", "id_local": "", "nom_lieu": "Aire de covoiturage Maison de La Montagne Noire", "ad_lieu": "D118", "com_lieu": "CAUDEBRONDE", "insee": "11079", "type": "Aire de covoiturage", "date_maj": "2019-08-29", "ouvert": "true", "source": "221100019", "nbre_pl": "", "nbre_pmr": "", "duree": "", "horaires": "", "proprio": "", "lumiere": "", "comm": "", "name": "Aire de covoiturage Maison de La Montagne Noire, D118", "lat": "43.36722", "lon": "2.30058"}
{"id_lieu": "11203-C-001", "id_local": "", "nom_lieu": "Aire de covoiturage de L\u00e9zignan-Corbi\u00e9res", "ad_lieu": "D611", "com_lieu": "LEZIGNAN CORBIERES", "insee": "11203", "type": "Aire de covoiturage", "date_maj": "2019-08-29", "ouvert": "true", "source": "221100019", "nbre_pl": "", "nbre_pmr": "", "duree": "", "horaires": "", "proprio": "", "lumiere": "", "comm": "", "name": "Aire de covoiturage de L\u00e9zignan-Corbi\u00e9res, D611", "lat": "43.17289", "lon": "2.74114"}
{"id_lieu": "11209-C-001", "id_local": "", "nom_lieu": "Aire de covoiturage de Luc-Sur-Aude", "ad_lieu": "D118", "com_lieu": "LUC SUR AUDE", "insee": "11209", "type": "Aire de covoiturage", "date_maj": "2019-08-29", "ouvert": "true", "source": "221100019", "nbre_pl": "", "nbre_pmr": "", "duree": "", "horaires": "", "proprio": "", "lumiere": "", "comm": "", "name": "Aire de covoiturage de Luc-Sur-Aude, D118", "lat": "42.95851", "lon": "2.26009"}
{"id_lieu": "11262-C-001", "id_local": "", "nom_lieu": "Aire de covoiturage de Narbonne", "ad_lieu": "D6009", "com_lieu": "NARBONNE", "insee": "11262", "type": "Aire de covoiturage", "date_maj": "2019-08-29", "ouvert": "true", "source": "221100019", "nbre_pl": "", "nbre_pmr": "", "duree": "", "horaires": "", "proprio": "", "lumiere": "", "comm": "", "name": "Aire de covoiturage de Narbonne, D6009", "lat": "43.16498", "lon": "2.98888"}
{"id_lieu": "11371-C-001", "id_local": "", "nom_lieu": "Aire de covoiturage de Salles-Sur-L'Hers", "ad_lieu": "D625", "com_lieu": "SALLES SUR L HERS", "insee": "11371", "type": "Aire de covoiturage", "date_maj": "2019-08-29", "ouvert": "true", "source": "221100019", "nbre_pl": "", "nbre_pmr": "", "duree": "", "horaires": "", "proprio": "", "lumiere": "", "comm": "", "name": "Aire de covoiturage de Salles-Sur-L'Hers, D625", "lat": "43.29523", "lon": "1.78192"}
{"id_lieu": "11429-C-001", "id_local": "", "nom_lieu": "Aire de covoiturage de Villemoustaussou", "ad_lieu": "D118", "com_lieu": "VILLEMOUSTAUSSOU", "insee": "11429", "type": "Aire de covoiturage", "date_maj": "2019-08-29", "ouvert": "true", "source": "221100019", "nbre_pl": "", "nbre_pmr": "", "duree": "", "horaires": "", "proprio": "", "lumiere": "", "comm": "", "name": "Aire de covoiturage de Villemoustaussou, D118", "lat": "43.24309", "lon": "2.38196"}
{"id_lieu": "12002-C-001", "id_local": "", "nom_lieu": "Aire de la Gamasse", "ad_lieu": "Croisement RD29-A7", "com_lieu": "AGUESSAC", "insee": "12002", "type": "Parking", "date_maj": "2019-08-29", "ouvert": "true", "source": "221200017", "nbre_pl": "", "nbre_pmr": "", "duree": "", "horaires": "", "proprio": "", "lumiere": "", "comm": "", "name": "Aire de la Gamasse, Croisement RD29-A7", "lat": "44.177543", "lon": "3.038912"}
{"id_lieu": "12016-C-001", "id_local": "", "nom_lieu": "Cote d'Hymes", "ad_lieu": "Croisement RD 840-", "com_lieu": "AUZITS", "insee": "12016", "type": "Parking", "date_maj": "2019-08-29", "ouvert": "true", "source": "221200017", "nbre_pl": "", "nbre_pmr": "", "duree": "", "horaires": "", "proprio": "", "lumiere": "", "comm": "", "name": "Cote d'Hymes, Croisement RD 840-", "lat": "44.513992", "lon": "2.354438"}
{"id_lieu": "12033-C-001", "id_local": "", "nom_lieu": "Aire de covoiturage de Curlande Cd12", "ad_lieu": "D\u00e9viation de Curlande", "com_lieu": "BOZOULS", "insee": "12033", "type": "Aire de covoiturage", "date_maj": "2019-08-29", "ouvert": "true", "source": "221200017", "nbre_pl": "", "nbre_pmr": "", "duree": "", "horaires": "", "proprio": "", "lumiere": "", "comm": "", "name": "Aire de covoiturage de Curlande Cd12, D\u00e9viation de Curlande", "lat": "44.436836", "lon": "2.680768"}
{"id_lieu": "12043-C-001", "id_local": "", "nom_lieu": "Aire des Molinieres", "ad_lieu": "Les Molinieres", "com_lieu": "CALMONT", "insee": "12043", "type": "Aire de covoiturage", "date_maj": "2019-08-29", "ouvert": "true", "source": "221200017", "nbre_pl": "", "nbre_pmr": "", "duree": "", "horaires": "", "proprio": "", "lumiere": "", "comm": "", "name": "Aire des Molinieres, Les Molinieres", "lat": "44.285335", "lon": "2.509183"}
{"id_lieu": "12054-C-001", "id_local": "", "nom_lieu": "Parking Croisement 911-544E2", "ad_lieu": "Croisement RD 544", "com_lieu": "LA CAPELLE BLEYS", "insee": "12054", "type": "Parking", "date_maj": "2019-08-29", "ouvert": "true", "source": "221200017", "nbre_pl": "", "nbre_pmr": "", "duree": "", "horaires": "", "proprio": "", "lumiere": "", "comm": "", "name": "Parking Croisement 911-544E2, Croisement RD 544", "lat": "44.307841", "lon": "2.173771"}
{"id_lieu": "12059-C-001", "id_local": "", "nom_lieu": "Parking D997 Le Poteau de Sauveterre", "ad_lieu": "Poteau de Sauveterre", "com_lieu": "CASTANET", "insee": "12059", "type": "Parking", "date_maj": "2019-08-29", "ouvert": "true", "source": "221200017", "nbre_pl": "", "nbre_pmr": "", "duree": "", "horaires": "", "proprio": "", "lumiere": "", "comm": "", "name": "Parking D997 Le Poteau de Sauveterre, Poteau de Sauveterre", "lat": "44.316144", "lon": "2.324752"}
{"id_lieu": "12063-C-001", "id_local": "", "nom_lieu": "Parking la Cavalerie", "ad_lieu": "ZA Millau Larzac", "com_lieu": "LA CAVALERIE", "insee": "12063", "type": "Parking", "date_maj": "2019-08-29", "ouvert": "true", "source": "221200017", "nbre_pl": "", "nbre_pmr": "", "duree": "", "horaires": "", "proprio": "", "lumiere": "", "comm": "", "name": "Parking la Cavalerie, ZA Millau Larzac", "lat": "44.016654", "lon": "3.142061"}
{"id_lieu": "12068-C-001", "id_local": "", "nom_lieu": "Le Poteau de Colombies", "ad_lieu": "Poteau de Colombies", "com_lieu": "COLOMBIES", "insee": "12068", "type": "Parking", "date_maj": "2019-08-29", "ouvert": "true", "source": "221200017", "nbre_pl": "", "nbre_pmr": "", "duree": "", "horaires": "", "proprio": "", "lumiere": "", "comm": "", "name": "Le Poteau de Colombies, Poteau de Colombies", "lat": "44.315909", "lon": "2.348287"}
{"id_lieu": "12073-C-001", "id_local": "", "nom_lieu": "Parking D82 Chemin de L'abbaye", "ad_lieu": "Chemin de L'Abbaye", "com_lieu": "COMPS LA GRAND VILLE", "insee": "12073", "type": "Parking", "date_maj": "2019-08-29", "ouvert": "true", "source": "221200017", "nbre_pl": "", "nbre_pmr": "", "duree": "", "horaires": "", "proprio": "", "lumiere": "", "comm": "", "name": "Parking D82 Chemin de L'abbaye, Chemin de L'Abbaye", "lat": "44.233621", "lon": "2.565642"}
{"id_lieu": "12077-C-001", "id_local": "", "nom_lieu": "Parking les Places D65", "ad_lieu": "Les Places", "com_lieu": "CORNUS", "insee": "12077", "type": "Parking", "date_maj": "2019-08-29", "ouvert": "true", "source": "221200017", "nbre_pl": "", "nbre_pmr": "", "duree": "", "horaires": "", "proprio": "", "lumiere": "", "comm": "", "name": "Parking les Places D65, Les Places", "lat": "43.949513", "lon": "3.21341"}
{"id_lieu": "12090-C-001", "id_local": "", "nom_lieu": "Aire du Pas", "ad_lieu": "Le Pas", "com_lieu": "DRUELLE", "insee": "12090", "type": "Aire de covoiturage", "date_maj": "2019-08-29", "ouvert": "true", "source": "221200017", "nbre_pl": "", "nbre_pmr": "", "duree": "", "horaires": "", "proprio": "", "lumiere": "", "comm": "", "name": "Aire du Pas, Le Pas", "lat": "44.38001", "lon": "2.451627"}
{"id_lieu": "12094-C-001", "id_local": "", "nom_lieu": "Parking Rodiez D920", "ad_lieu": "Avenue de Rodiez", "com_lieu": "ENTRAYGUES SUR TRUYERE", "insee": "12094", "type": "Parking", "date_maj": "2019-08-29", "ouvert": "true", "source": "221200017", "nbre_pl": "", "nbre_pmr": "", "duree": "", "horaires": "", "proprio": "", "lumiere": "", "comm": "", "name": "Parking Rodiez D920, Avenue de Rodiez", "lat": "44.638424", "lon": "2.571188"}
{"id_lieu": "12101-C-001", "id_local": "", "nom_lieu": "Parking Flagnac", "ad_lieu": "Croisement D963-D508", "com_lieu": "FLAGNAC", "insee": "12101", "type": "Parking", "date_maj": "2019-08-29", "ouvert": "true", "source": "221200017", "nbre_pl": "", "nbre_pmr": "", "duree": "", "horaires": "", "proprio": "", "lumiere": "", "comm": "", "name": "Parking Flagnac, Croisement D963-D508", "lat": "44.60498366", "lon": "2.243041975"}
{"id_lieu": "12104-C-001", "id_local": "", "nom_lieu": "Parking Causse-et-Di\u00e9ge D922", "ad_lieu": "Gelles", "com_lieu": "FOISSAC", "insee": "12104", "type": "Parking", "date_maj": "2019-08-29", "ouvert": "true", "source": "221200017", "nbre_pl": "", "nbre_pmr": "", "duree": "", "horaires": "", "proprio": "", "lumiere": "", "comm": "", "name": "Parking Causse-et-Di\u00e9ge D922, Gelles", "lat": "44.513677", "lon": "2.029211"}
{"id_lieu": "12105-C-001", "id_local": "", "nom_lieu": "Parking D922 La Fouillade", "ad_lieu": "Bourg de La Fouillade", "com_lieu": "LA FOUILLADE", "insee": "12105", "type": "Parking", "date_maj": "2019-08-29", "ouvert": "true", "source": "221200017", "nbre_pl": "", "nbre_pmr": "", "duree": "", "horaires": "", "proprio": "", "lumiere": "", "comm": "", "name": "Parking D922 La Fouillade, Bourg de La Fouillade", "lat": "44.228511", "lon": "2.040481"}
{"id_lieu": "12136-C-001", "id_local": "", "nom_lieu": "Aire de Maleville", "ad_lieu": "Croisement RD 539", "com_lieu": "MALEVILLE", "insee": "12136", "type": "Parking", "date_maj": "2019-08-29", "ouvert": "true", "source": "221200017", "nbre_pl": "", "nbre_pmr": "", "duree": "", "horaires": "", "proprio": "", "lumiere": "", "comm": "", "name": "Aire de Maleville, Croisement RD 539", "lat": "44.405197", "lon": "2.090396"}
{"id_lieu": "12142-C-001", "id_local": "", "nom_lieu": "Mayran", "ad_lieu": "Croisement RD 285", "com_lieu": "MAYRAN", "insee": "12142", "type": "Parking", "date_maj": "2019-08-29", "ouvert": "true", "source": "221200017", "nbre_pl": "", "nbre_pmr": "", "duree": "", "horaires": "", "proprio": "", "lumiere": "", "comm": "", "name": "Mayran, Croisement RD 285", "lat": "44.399167", "lon": "2.365688"}
{"id_lieu": "12145-C-001", "id_local": "", "nom_lieu": "Aire de St Germain", "ad_lieu": "St Germain", "com_lieu": "MILLAU", "insee": "12145", "type": "Parking", "date_maj": "2019-08-29", "ouvert": "true", "source": "221200017", "nbre_pl": "", "nbre_pmr": "", "duree": "", "horaires": "", "proprio": "", "lumiere": "", "comm": "", "name": "Aire de St Germain, St Germain", "lat": "44.133401", "lon": "3.031685"}
{"id_lieu": "12156-C-001", "id_local": "", "nom_lieu": "Parking D921 Montpeyroux", "ad_lieu": "Croisement RD 70 St Remy", "com_lieu": "MONTPEYROUX", "insee": "12156", "type": "Parking", "date_maj": "2019-08-29", "ouvert": "true", "source": "221200017", "nbre_pl": "", "nbre_pmr": "", "duree": "", "horaires": "", "proprio": "", "lumiere": "", "comm": "", "name": "Parking D921 Montpeyroux, Croisement RD 70 St Remy", "lat": "44.622863", "lon": "2.817685"}
{"id_lieu": "12160-C-001", "id_local": "", "nom_lieu": "Aire de Laubigue", "ad_lieu": "Juste apr\u00e9s la sortie D192", "com_lieu": "MOSTUEJOULS", "insee": "12160", "type": "Parking", "date_maj": "2019-08-29", "ouvert": "true", "source": "221200017", "nbre_pl": "", "nbre_pmr": "", "duree": "", "horaires": "", "proprio": "", "lumiere": "", "comm": "", "name": "Aire de Laubigue, Juste apr\u00e9s la sortie D192", "lat": "44.198124", "lon": "3.189076"}
{"id_lieu": "12176-C-001", "id_local": "", "nom_lieu": "Parking route du ch\u00e9teau D568", "ad_lieu": "Croisement 901-568 \u00e9 c\u00e9t\u00e9 d'Hostellerie de Fontanges", "com_lieu": "ONET LE CHATEAU", "insee": "12176", "type": "Parking", "date_maj": "2019-08-29", "ouvert": "true", "source": "221200017", "nbre_pl": "", "nbre_pmr": "", "duree": "", "horaires": "", "proprio": "", "lumiere": "", "comm": "", "name": "Parking route du ch\u00e9teau D568, Croisement 901-568 \u00e9 c\u00e9t\u00e9 d'Hostellerie de Fontanges", "lat": "44.3788943", "lon": "2.563693601"}
{"id_lieu": "12176-C-002", "id_local": "", "nom_lieu": "Aire de la Croix blanche", "ad_lieu": "La Croix Blanche", "com_lieu": "ONET LE CHATEAU", "insee": "12176", "type": "Parking", "date_maj": "2019-08-29", "ouvert": "true", "source": "221200017", "nbre_pl": "", "nbre_pmr": "", "duree": "", "horaires": "", "proprio": "", "lumiere": "", "comm": "", "name": "Aire de la Croix blanche, La Croix Blanche", "lat": "44.385137", "lon": "2.52149"}
{"id_lieu": "12177-C-001", "id_local": "", "nom_lieu": "Aire du Pont de PALMAS", "ad_lieu": "Croisement RD 602", "com_lieu": "PALMAS D AVEYRON", "insee": "12177", "type": "Parking", "date_maj": "2019-08-29", "ouvert": "true", "source": "221200017", "nbre_pl": "", "nbre_pmr": "", "duree": "", "horaires": "", "proprio": "", "lumiere": "", "comm": "", "name": "Aire du Pont de PALMAS, Croisement RD 602", "lat": "44.398314", "lon": "2.836789"}
{"id_lieu": "12195-C-001", "id_local": "", "nom_lieu": "Aire des Rougier D32", "ad_lieu": "Croisement RD 32", "com_lieu": "REBOURGUIL", "insee": "12195", "type": "Parking", "date_maj": "2019-08-29", "ouvert": "true", "source": "221200017", "nbre_pl": "", "nbre_pmr": "", "duree": "", "horaires": "", "proprio": "", "lumiere": "", "comm": "", "name": "Aire des Rougier D32, Croisement RD 32", "lat": "43.870337", "lon": "2.756709"}
{"id_lieu": "12195-C-002", "id_local": "", "nom_lieu": "Parking Station de service Avia - Rebourguil", "ad_lieu": "Parc d'activit\u00e9 Saint-Pierre - D999", "com_lieu": "REBOURGUIL", "insee": "12195", "type": "Parking", "date_maj": "2019-08-29", "ouvert": "true", "source": "221200017", "nbre_pl": "", "nbre_pmr": "", "duree": "", "horaires": "", "proprio": "", "lumiere": "", "comm": "", "name": "Parking Station de service Avia - Rebourguil, Parc d'activit\u00e9 Saint-Pierre - D999", "lat": "43.875459", "lon": "2.77644"}
{"id_lieu": "12208-C-001", "id_local": "", "nom_lieu": "Aire du Dolmen", "ad_lieu": "Croisement RD 250", "com_lieu": "ST AFFRIQUE", "insee": "12208", "type": "Parking", "date_maj": "2019-08-29", "ouvert": "true", "source": "221200017", "nbre_pl": "", "nbre_pmr": "", "duree": "", "horaires": "", "proprio": "", "lumiere": "", "comm": "", "name": "Aire du Dolmen, Croisement RD 250", "lat": "43.989919", "lon": "2.935273"}
{"id_lieu": "12234-C-001", "id_local": "", "nom_lieu": "Aire du Viaur D902", "ad_lieu": "Aire du Viaur", "com_lieu": "STE JULIETTE SUR VIAUR", "insee": "12234", "type": "Parking", "date_maj": "2019-08-29", "ouvert": "true", "source": "221200017", "nbre_pl": "", "nbre_pmr": "", "duree": "", "horaires": "", "proprio": "", "lumiere": "", "comm": "", "name": "Aire du Viaur D902, Aire du Viaur", "lat": "44.216004", "lon": "2.538522"}
{"id_lieu": "12244-C-001", "id_local": "", "nom_lieu": "Parking station de service Garage Courdy", "ad_lieu": "Saint-F\u00e9rr\u00e9ols Haut", "com_lieu": "ST ROME DE TARN", "insee": "12244", "type": "Parking", "date_maj": "2019-08-29", "ouvert": "true", "source": "221200017", "nbre_pl": "", "nbre_pmr": "", "duree": "", "horaires": "", "proprio": "", "lumiere": "", "comm": "", "name": "Parking station de service Garage Courdy, Saint-F\u00e9rr\u00e9ols Haut", "lat": "44.042188", "lon": "2.908273"}
{"id_lieu": "12254-C-001", "id_local": "", "nom_lieu": "Saveyrac", "ad_lieu": "Face au croisement", "com_lieu": "SALLES LA SOURCE", "insee": "12254", "type": "Parking", "date_maj": "2019-08-29", "ouvert": "true", "source": "221200017", "nbre_pl": "", "nbre_pmr": "", "duree": "", "horaires": "", "proprio": "", "lumiere": "", "comm": "", "name": "Saveyrac, Face au croisement", "lat": "44.423433", "lon": "2.470475"}
{"id_lieu": "12267-C-001", "id_local": "", "nom_lieu": "Aire de la Roziere", "ad_lieu": "La Roziere Basse", "com_lieu": "LA SELVE", "insee": "12267", "type": "Aire de covoiturage", "date_maj": "2019-08-29", "ouvert": "true", "source": "221200017", "nbre_pl": "", "nbre_pmr": "", "duree": "", "horaires": "", "proprio": "", "lumiere": "", "comm": "", "name": "Aire de la Roziere, La Roziere Basse", "lat": "44.123831", "lon": "2.533378"}
{"id_lieu": "12286-C-001", "id_local": "", "nom_lieu": "Parking rond point Silo de Vabres l'Abbaye", "ad_lieu": "Silo", "com_lieu": "VABRES L ABBAYE", "insee": "12286", "type": "Parking", "date_maj": "2019-08-29", "ouvert": "true", "source": "221200017", "nbre_pl": "", "nbre_pmr": "", "duree": "", "horaires": "", "proprio": "", "lumiere": "", "comm": "", "name": "Parking rond point Silo de Vabres l'Abbaye, Silo", "lat": "43.951383", "lon": "2.837302"}
{"id_lieu": "12290-C-001", "id_local": "", "nom_lieu": "Bel-Air de Lanuejouls", "ad_lieu": "Bel-Air de Lanuejouls", "com_lieu": "VAUREILLES", "insee": "12290", "type": "Aire de covoiturage", "date_maj": "2019-08-29", "ouvert": "true", "source": "221200017", "nbre_pl": "", "nbre_pmr": "", "duree": "", "horaires": "", "proprio": "", "lumiere": "", "comm": "", "name": "Bel-Air de Lanuejouls, Bel-Air de Lanuejouls", "lat": "44.432609", "lon": "2.193008"}
{"id_lieu": "12294-C-001", "id_local": "", "nom_lieu": "Aire des Vialettes", "ad_lieu": "Rd29", "com_lieu": "VEZINS DE LEVEZOU", "insee": "12294", "type": "Parking", "date_maj": "2019-08-29", "ouvert": "true", "source": "221200017", "nbre_pl": "", "nbre_pmr": "", "duree": "", "horaires": "", "proprio": "", "lumiere": "", "comm": "", "name": "Aire des Vialettes, Rd29", "lat": "44.261131", "lon": "2.91892"}
{"id_lieu": "12294-C-002", "id_local": "", "nom_lieu": "Aire du Roucous", "ad_lieu": "Le Roucous", "com_lieu": "VEZINS DE LEVEZOU", "insee": "12294", "type": "Parking", "date_maj": "2019-08-29", "ouvert": "true", "source": "221200017", "nbre_pl": "", "nbre_pmr": "", "duree": "", "horaires": "", "proprio": "", "lumiere": "", "comm": "", "name": "Aire du Roucous, Le Roucous", "lat": "44.240788", "lon": "2.914402"}
{"id_lieu": "12300-C-001", "id_local": "", "nom_lieu": "Parking D24 Route de Toulonjac", "ad_lieu": "Route de Toulonjac", "com_lieu": "VILLEFRANCHE DE ROUERGUE", "insee": "12300", "type": "Parking", "date_maj": "2019-08-29", "ouvert": "true", "source": "221200017", "nbre_pl": "", "nbre_pmr": "", "duree": "", "horaires": "", "proprio": "", "lumiere": "", "comm": "", "name": "Parking D24 Route de Toulonjac, Route de Toulonjac", "lat": "44.373495", "lon": "2.01417"}
{"id_lieu": "12307-C-001", "id_local": "", "nom_lieu": "Aire du Puech de Lauzeche", "ad_lieu": "Puech De Lauzeche", "com_lieu": "CURAN", "insee": "12307", "type": "Parking", "date_maj": "2019-08-29", "ouvert": "true", "source": "221200017", "nbre_pl": "", "nbre_pmr": "", "duree": "", "horaires": "", "proprio": "", "lumiere": "", "comm": "", "name": "Aire du Puech de Lauzeche, Puech De Lauzeche", "lat": "44.240365", "lon": "2.875413"}
{"id_lieu": "13007-C-001", "id_local": "", "nom_lieu": "Parking Pharmacie du Pujol", "ad_lieu": "D560", "com_lieu": "AURIOL", "insee": "13007", "type": "Parking", "date_maj": "2019-08-29", "ouvert": "true", "source": "221300015", "nbre_pl": "43", "nbre_pmr": "", "duree": "", "horaires": "", "proprio": "", "lumiere": "", "comm": "", "name": "Parking Pharmacie du Pujol, D560", "lat": "43.369287", "lon": "5.648516"}
{"id_lieu": "13014-C-001", "id_local": "", "nom_lieu": "Aire de Berre L'Etang (Rond Point D10 D113)", "ad_lieu": "D10-D113", "com_lieu": "BERRE L ETANG", "insee": "13014", "type": "Aire de covoiturage", "date_maj": "2019-08-29", "ouvert": "true", "source": "221300015", "nbre_pl": "100", "nbre_pmr": "", "duree": "", "horaires": "", "proprio": "", "lumiere": "", "comm": "", "name": "Aire de Berre L'Etang (Rond Point D10 D113), D10-D113", "lat": "43.525897", "lon": "5.197111"}
{"id_lieu": "13040-C-001", "id_local": "", "nom_lieu": "Aire de La Barque", "ad_lieu": "D6-D96", "com_lieu": "FUVEAU", "insee": "13040", "type": "Aire de covoiturage", "date_maj": "2019-08-29", "ouvert": "true", "source": "221300015", "nbre_pl": "96", "nbre_pmr": "", "duree": "", "horaires": "", "proprio": "", "lumiere": "", "comm": "", "name": "Aire de La Barque, D6-D96", "lat": "43.476744", "lon": "5.538402"}
{"id_lieu": "13059-C-001", "id_local": "", "nom_lieu": "Aire de Meyrargues", "ad_lieu": "D556", "com_lieu": "MEYRARGUES", "insee": "13059", "type": "Aire de covoiturage", "date_maj": "2019-08-29", "ouvert": "true", "source": "221300015", "nbre_pl": "59", "nbre_pmr": "", "duree": "", "horaires": "", "proprio": "", "lumiere": "", "comm": "", "name": "Aire de Meyrargues, D556", "lat": "43.663113", "lon": "5.495705"}
{"id_lieu": "13059-C-002", "id_local": "", "nom_lieu": "Aire de Meyrargues Rd556 (Extension)", "ad_lieu": "D556", "com_lieu": "MEYRARGUES", "insee": "13059", "type": "Aire de covoiturage", "date_maj": "2019-08-29", "ouvert": "true", "source": "221300015", "nbre_pl": "52", "nbre_pmr": "", "duree": "", "horaires": "", "proprio": "", "lumiere": "", "comm": "", "name": "Aire de Meyrargues Rd556 (Extension), D556", "lat": "43.663145", "lon": "5.494959"}
{"id_lieu": "13071-C-001", "id_local": "", "nom_lieu": "Parking Aire de Stationement Chemin de La Pourranque", "ad_lieu": "D113", "com_lieu": "LES PENNES MIRABEAU", "insee": "13071", "type": "Parking", "date_maj": "2019-08-29", "ouvert": "true", "source": "221300015", "nbre_pl": "30", "nbre_pmr": "", "duree": "", "horaires": "", "proprio": "", "lumiere": "", "comm": "", "name": "Parking Aire de Stationement Chemin de La Pourranque, D113", "lat": "43.415103", "lon": "5.298068"}
{"id_lieu": "13113-C-001", "id_local": "", "nom_lieu": "Aire de Venelles", "ad_lieu": "D96-D556", "com_lieu": "VENELLES", "insee": "13113", "type": "Aire de covoiturage", "date_maj": "2019-08-29", "ouvert": "true", "source": "221300015", "nbre_pl": "70", "nbre_pmr": "", "duree": "", "horaires": "", "proprio": "", "lumiere": "", "comm": "", "name": "Aire de Venelles, D96-D556", "lat": "43.609266", "lon": "5.496134"}
{"id_lieu": "14167-C-001", "id_local": "", "nom_lieu": "Parking du Ch\u00e9teau d'eau", "ad_lieu": "D226", "com_lieu": "COLOMBELLES", "insee": "14167", "type": "Parking", "date_maj": "2019-08-29", "ouvert": "true", "source": "221401185", "nbre_pl": "59", "nbre_pmr": "", "duree": "", "horaires": "", "proprio": "D\u00e9partement du Calvados", "lumiere": "", "comm": "", "name": "Parking du Ch\u00e9teau d'eau, D226", "lat": "49.19922977", "lon": "-0.291906095"}
{"id_lieu": "14174-C-001", "id_local": "", "nom_lieu": "Parking du Supermarch\u00e9Becocy", "ad_lieu": "D512", "com_lieu": "CONDE EN NORMANDIE", "insee": "14174", "type": "Parking", "date_maj": "2019-08-29", "ouvert": "true", "source": "221401185", "nbre_pl": "10", "nbre_pmr": "", "duree": "", "horaires": "", "proprio": "Com. du Pays de ConD\u00e9 et de la Druance", "lumiere": "", "comm": "", "name": "Parking du Supermarch\u00e9Becocy, D512", "lat": "48.85130404", "lon": "-0.563531933"}
{"id_lieu": "14185-C-001", "id_local": "", "nom_lieu": "Aire de covoiturage Coudray-Rabut", "ad_lieu": "151 Route de Honfleur D579", "com_lieu": "COUDRAY RABUT", "insee": "14185", "type": "Aire de covoiturage", "date_maj": "2019-08-29", "ouvert": "true", "source": "221401185", "nbre_pl": "19", "nbre_pmr": "", "duree": "", "horaires": "", "proprio": "D\u00e9partement du Calvados", "lumiere": "", "comm": "", "name": "Aire de covoiturage Coudray-Rabut, 151 Route de Honfleur D579", "lat": "49.2977389", "lon": "0.187595535"}
{"id_lieu": "14327-C-001", "id_local": "", "nom_lieu": "Aire H\u00e9rouville Saint Clair Porte d'Angleterre", "ad_lieu": "RN814", "com_lieu": "HEROUVILLE SAINT CLAIR", "insee": "14327", "type": "Parking", "date_maj": "2019-12-20", "ouvert": "true", "source": "200065597", "nbre_pl": "15", "nbre_pmr": "1", "duree": "", "horaires": "", "proprio": "Communaut\u00e9 urbaine Caen la mer", "lumiere": "", "comm": "", "name": "Aire H\u00e9rouville Saint Clair Porte d'Angleterre, RN814", "lat": "49.191634", "lon": "-0.335847"}
{"id_lieu": "14341-C-001", "id_local": "", "nom_lieu": "Aire Ifs La dronni\u00e9re", "ad_lieu": "RN158", "com_lieu": "IFS", "insee": "14341", "type": "Parking", "date_maj": "2019-12-30", "ouvert": "true", "source": "200065597", "nbre_pl": "43", "nbre_pmr": "1", "duree": "", "horaires": "", "proprio": "Communaut\u00e9 urbaine Caen la mer", "lumiere": "", "comm": "", "name": "Aire Ifs La dronni\u00e9re, RN158", "lat": "49.136966", "lon": "-0.337174"}
{"id_lieu": "14389-C-001", "id_local": "", "nom_lieu": "Parking covoiturage Villers Bocage", "ad_lieu": "D6", "com_lieu": "MAISONCELLES PELVEY", "insee": "14389", "type": "Aire de covoiturage", "date_maj": "2019-08-29", "ouvert": "true", "source": "221401185", "nbre_pl": "", "nbre_pmr": "", "duree": "", "horaires": "", "proprio": "D\u00e9partement du Calvados", "lumiere": "", "comm": "", "name": "Parking covoiturage Villers Bocage, D6", "lat": "49.06688977", "lon": "-0.658822909"}
{"id_lieu": "14488-C-001", "id_local": "", "nom_lieu": "Aire Ouistreham Le Maresquier", "ad_lieu": "RD515", "com_lieu": "OUISTREHAM", "insee": "14488", "type": "Parking", "date_maj": "2019-12-30", "ouvert": "true", "source": "200065597", "nbre_pl": "15", "nbre_pmr": "1", "duree": "", "horaires": "", "proprio": "Communaut\u00e9 urbaine Caen la mer", "lumiere": "", "comm": "", "name": "Aire Ouistreham Le Maresquier, RD515", "lat": "49.263251", "lon": "-0.262502"}
{"id_lieu": "14579-C-001", "id_local": "", "nom_lieu": "Parking du rond point", "ad_lieu": "D675", "com_lieu": "SEULLINE", "insee": "14579", "type": "Parking", "date_maj": "2019-08-29", "ouvert": "true", "source": "221401185", "nbre_pl": "20", "nbre_pmr": "", "duree": "", "horaires": "", "proprio": "D\u00e9partement du Calvados", "lumiere": "", "comm": "", "name": "Parking du rond point, D675", "lat": "49.05213487", "lon": "-0.711063614"}
{"id_lieu": "14609-C-001", "id_local": "", "nom_lieu": "Aire de covoiturage de Gu\u00e9ron (Sortie 37)", "ad_lieu": "D572", "com_lieu": "ST LOUP HORS", "insee": "14609", "type": "Aire de covoiturage", "date_maj": "2019-08-29", "ouvert": "true", "source": "221401185", "nbre_pl": "22", "nbre_pmr": "", "duree": "", "horaires": "", "proprio": "D\u00e9partement du Calvados", "lumiere": "", "comm": "", "name": "Aire de covoiturage de Gu\u00e9ron (Sortie 37), D572", "lat": "49.25637257", "lon": "-0.722287401"}
